{"type":"FeatureCollection","features":[{"type":"Feature","geometry":{"type":"Point","coordinates":[-85.18673305,35.04243311]},"properties":{"httpVideoUrl":"http://8.15.251.101:1935/rtplive/R2_055/playlist.m3u8","thumbnailUrl":"http://www.tdot.state.tn.us/cctv/cctvchatt/live/cam16155.jpg","rtmpVideoUrl":"rtmp://8.15.251.101:1935/rtplive/R2_055","rtspVideoUrl":"rtsp://8.15.251.101:1935/rtplive/R2_055","title":"SR-153 @ Airport/Shepherd Road","id":"70"}},{"type":"Feature","geometry":{"type":"Point","coordinates":[-85.19055019,35.05439952]},"properties":{"httpVideoUrl":"http://8.15.251.101:1935/rtplive/R2_056/playlist.m3u8","thumbnailUrl":"http://www.tdot.state.tn.us/cctv/cctvchatt/live/cam16156.jpg","rtmpVideoUrl":"rtmp://8.15.251.101:1935/rtplive/R2_056","rtspVideoUrl":"rtsp://8.15.251.101:1935/rtplive/R2_056","title":"SR-153 @ Shallowford Road","id":"71"}},{"type":"Feature","geometry":{"type":"Point","coordinates":[-85.19970026,35.07633374]},"properties":{"httpVideoUrl":"http://8.15.251.101:1935/rtplive/R2_058/playlist.m3u8","thumbnailUrl":"http://www.tdot.state.tn.us/cctv/cctvchatt/live/cam16158.jpg","rtmpVideoUrl":"rtmp://8.15.251.101:1935/rtplive/R2_058","rtspVideoUrl":"rtsp://8.15.251.101:1935/rtplive/R2_058","title":"SR-153 @ Bonny Oaks Drive","id":"73"}},{"type":"Feature","geometry":{"type":"Point","coordinates":[-85.20483303,35.08138302]},"properties":{"httpVideoUrl":"http://8.15.251.101:1935/rtplive/R2_059/playlist.m3u8","thumbnailUrl":"http://www.tdot.state.tn.us/cctv/cctvchatt/live/cam16159.jpg","rtmpVideoUrl":"rtmp://8.15.251.101:1935/rtplive/R2_059","rtspVideoUrl":"rtsp://8.15.251.101:1935/rtplive/R2_059","title":"SR-153 @ Highway 58","id":"74"}},{"type":"Feature","geometry":{"type":"Point","coordinates":[-85.22556628,35.09478375]},"properties":{"httpVideoUrl":"http://8.15.251.102:1935/rtplive/R2_061/playlist.m3u8","thumbnailUrl":"http://www.tdot.state.tn.us/cctv/cctvchatt/live/cam16161.jpg","rtmpVideoUrl":"rtmp://8.15.251.102:1935/rtplive/R2_061","rtspVideoUrl":"rtsp://8.15.251.102:1935/rtplive/R2_061","title":"SR-153 South of Chickamauga Dam","id":"76"}},{"type":"Feature","geometry":{"type":"Point","coordinates":[-85.23079964,35.11486622]},"properties":{"httpVideoUrl":"http://8.15.251.102:1935/rtplive/R2_063/playlist.m3u8","thumbnailUrl":"http://www.tdot.state.tn.us/cctv/cctvchatt/live/cam16163.jpg","rtmpVideoUrl":"rtmp://8.15.251.102:1935/rtplive/R2_063","rtspVideoUrl":"rtsp://8.15.251.102:1935/rtplive/R2_063","title":"SR-153 South of Dupont Parkway","id":"78"}},{"type":"Feature","geometry":{"type":"Point","coordinates":[-85.24494971,35.13105009]},"properties":{"httpVideoUrl":"http://8.15.251.102:1935/rtplive/R2_065/playlist.m3u8","thumbnailUrl":"http://www.tdot.state.tn.us/cctv/cctvchatt/live/cam16165.jpg","rtmpVideoUrl":"rtmp://8.15.251.102:1935/rtplive/R2_065","rtspVideoUrl":"rtsp://8.15.251.102:1935/rtplive/R2_065","title":"SR-153 @ Hixson Pike","id":"79"}},{"type":"Feature","geometry":{"type":"Point","coordinates":[-85.24843291,35.15706699]},"properties":{"httpVideoUrl":"http://8.15.251.102:1935/rtplive/R2_067/playlist.m3u8","thumbnailUrl":"http://www.tdot.state.tn.us/cctv/cctvchatt/live/cam16167.jpg","rtmpVideoUrl":"rtmp://8.15.251.102:1935/rtplive/R2_067","rtspVideoUrl":"rtsp://8.15.251.102:1935/rtplive/R2_067","title":"SR-153 @ Grubb Road","id":"81"}},{"type":"Feature","geometry":{"type":"Point","coordinates":[-85.24718366,35.1779833]},"properties":{"httpVideoUrl":"http://8.15.251.102:1935/rtplive/R2_069/playlist.m3u8","thumbnailUrl":"http://www.tdot.state.tn.us/cctv/cctvchatt/live/cam16169.jpg","rtmpVideoUrl":"rtmp://8.15.251.102:1935/rtplive/R2_069","rtspVideoUrl":"rtsp://8.15.251.102:1935/rtplive/R2_069","title":"SR-153 @ Dayton Boulevard","id":"82"}},{"type":"Feature","geometry":{"type":"Point","coordinates":[-84.05222189,35.92638906]},"properties":{"httpVideoUrl":"http://8.15.251.104:1935/rtplive/R1_009/playlist.m3u8","thumbnailUrl":"http://www.tdot.state.tn.us/cctv/cctvknox/live/cam16009.jpg","rtmpVideoUrl":"rtmp://8.15.251.104:1935/rtplive/R1_009","rtspVideoUrl":"rtsp://8.15.251.104:1935/rtplive/R1_009","title":"I-40/75 @ Gallaher View Rd","id":"83"}},{"type":"Feature","geometry":{"type":"Point","coordinates":[-84.07666667,35.92083283]},"properties":{"httpVideoUrl":"http://8.15.251.104:1935/rtplive/R1_007/playlist.m3u8","thumbnailUrl":"http://www.tdot.state.tn.us/cctv/cctvknox/live/cam16007.jpg","rtmpVideoUrl":"rtmp://8.15.251.104:1935/rtplive/R1_007","rtspVideoUrl":"rtsp://8.15.251.104:1935/rtplive/R1_007","title":"I-40/75 @ Bridgewater Rd","id":"1"}},{"type":"Feature","geometry":{"type":"Point","coordinates":[-84.02527761,35.93222189]},"properties":{"httpVideoUrl":"http://8.15.251.100:1935/rtplive/R1_011/playlist.m3u8","thumbnailUrl":"http://www.tdot.state.tn.us/cctv/cctvknox/live/cam16011.jpg","rtmpVideoUrl":"rtmp://8.15.251.100:1935/rtplive/R1_011","rtspVideoUrl":"rtsp://8.15.251.100:1935/rtplive/R1_011","title":"I-40/75 @ Wesley Rd","id":"2"}},{"type":"Feature","geometry":{"type":"Point","coordinates":[-83.99194428,35.94833333]},"properties":{"httpVideoUrl":"http://8.15.251.100:1935/rtplive/R1_014/playlist.m3u8","thumbnailUrl":"http://www.tdot.state.tn.us/cctv/cctvknox/live/cam16014.jpg","rtmpVideoUrl":"rtmp://8.15.251.100:1935/rtplive/R1_014","rtspVideoUrl":"rtsp://8.15.251.100:1935/rtplive/R1_014","title":"I-40/75  East of Papermill Rd","id":"4"}},{"type":"Feature","geometry":{"type":"Point","coordinates":[-83.94889962,35.93110038]},"properties":{"httpVideoUrl":"http://8.15.251.104:1935/rtplive/R1_053/playlist.m3u8","thumbnailUrl":"http://www.tdot.state.tn.us/cctv/cctvknox/live/cam16053.jpg","rtmpVideoUrl":"rtmp://8.15.251.104:1935/rtplive/R1_053","rtspVideoUrl":"rtsp://8.15.251.104:1935/rtplive/R1_053","title":"Alcoa Hwy South of Cherokee Tr","id":"5"}},{"type":"Feature","geometry":{"type":"Point","coordinates":[-83.94527761,35.95555623]},"properties":{"httpVideoUrl":"http://8.15.251.104:1935/rtplive/R1_057/playlist.m3u8","thumbnailUrl":"http://www.tdot.state.tn.us/cctv/cctvknox/live/cam16057.jpg","rtmpVideoUrl":"rtmp://8.15.251.104:1935/rtplive/R1_057","rtspVideoUrl":"rtsp://8.15.251.104:1935/rtplive/R1_057","title":"Alcoa Hwy South of I-40","id":"6"}},{"type":"Feature","geometry":{"type":"Point","coordinates":[-83.94,35.9625005]},"properties":{"httpVideoUrl":"http://8.15.251.100:1935/rtplive/R1_019/playlist.m3u8","thumbnailUrl":"http://www.tdot.state.tn.us/cctv/cctvknox/live/cam16019.jpg","rtmpVideoUrl":"rtmp://8.15.251.100:1935/rtplive/R1_019","rtspVideoUrl":"rtsp://8.15.251.100:1935/rtplive/R1_019","title":"I-40 @ 17th St","id":"8"}},{"type":"Feature","geometry":{"type":"Point","coordinates":[-83.93361094,35.975]},"properties":{"httpVideoUrl":"http://8.15.251.104:1935/rtplive/R1_058/playlist.m3u8","thumbnailUrl":"http://www.tdot.state.tn.us/cctv/cctvknox/live/cam16058.jpg","rtmpVideoUrl":"rtmp://8.15.251.104:1935/rtplive/R1_058","rtspVideoUrl":"rtsp://8.15.251.104:1935/rtplive/R1_058","title":"I-275 @ Baxter Av","id":"9"}},{"type":"Feature","geometry":{"type":"Point","coordinates":[-85.18861698,35.01119996]},"properties":{"httpVideoUrl":"http://8.15.251.104:1935/rtplive/R2_037/playlist.m3u8","thumbnailUrl":"http://www.tdot.state.tn.us/cctv/cctvchatt/live/cam16137.jpg","rtmpVideoUrl":"rtmp://8.15.251.104:1935/rtplive/R2_037","rtspVideoUrl":"rtsp://8.15.251.104:1935/rtplive/R2_037","title":"I-75 South of East Brainerd Rd","id":"11"}},{"type":"Feature","geometry":{"type":"Point","coordinates":[-85.17286663,35.02579964]},"properties":{"httpVideoUrl":"http://8.15.251.104:1935/rtplive/R2_039/playlist.m3u8","thumbnailUrl":"http://www.tdot.state.tn.us/cctv/cctvchatt/live/cam16139.jpg","rtmpVideoUrl":"rtmp://8.15.251.104:1935/rtplive/R2_039","rtspVideoUrl":"rtsp://8.15.251.104:1935/rtplive/R2_039","title":"I-75/SR-153 Junction","id":"13"}},{"type":"Feature","geometry":{"type":"Point","coordinates":[-85.16633374,35.03219976]},"properties":{"httpVideoUrl":"http://8.15.251.104:1935/rtplive/R2_040/playlist.m3u8","thumbnailUrl":"http://www.tdot.state.tn.us/cctv/cctvchatt/live/cam16140.jpg","rtmpVideoUrl":"rtmp://8.15.251.104:1935/rtplive/R2_040","rtspVideoUrl":"rtsp://8.15.251.104:1935/rtplive/R2_040","title":"I-75 @ Franks Road","id":"14"}},{"type":"Feature","geometry":{"type":"Point","coordinates":[-85.14531684,35.05093341]},"properties":{"httpVideoUrl":"http://8.15.251.100:1935/rtplive/R2_042/playlist.m3u8","thumbnailUrl":"http://www.tdot.state.tn.us/cctv/cctvchatt/live/cam16142.jpg","rtmpVideoUrl":"rtmp://8.15.251.100:1935/rtplive/R2_042","rtspVideoUrl":"rtsp://8.15.251.100:1935/rtplive/R2_042","title":"I-75 @ Standifer Gap Road","id":"16"}},{"type":"Feature","geometry":{"type":"Point","coordinates":[-83.97222189,36.01055623]},"properties":{"httpVideoUrl":"http://8.15.251.100:1935/rtplive/R1_064/playlist.m3u8","thumbnailUrl":"http://www.tdot.state.tn.us/cctv/cctvknox/live/cam16064.jpg","rtmpVideoUrl":"rtmp://8.15.251.100:1935/rtplive/R1_064","rtspVideoUrl":"rtsp://8.15.251.100:1935/rtplive/R1_064","title":"I-75 @ Merchant Dr","id":"52"}},{"type":"Feature","geometry":{"type":"Point","coordinates":[-83.96638906,35.99416717]},"properties":{"httpVideoUrl":"http://8.15.251.102:1935/rtplive/R1_038/playlist.m3u8","thumbnailUrl":"http://www.tdot.state.tn.us/cctv/cctvknox/live/cam16038.jpg","rtmpVideoUrl":"rtmp://8.15.251.102:1935/rtplive/R1_038","rtspVideoUrl":"rtsp://8.15.251.102:1935/rtplive/R1_038","title":"I-75/640 West of I-275","id":"54"}},{"type":"Feature","geometry":{"type":"Point","coordinates":[-83.95611145,35.99944377]},"properties":{"httpVideoUrl":"http://8.15.251.100:1935/rtplive/R1_062/playlist.m3u8","thumbnailUrl":"http://www.tdot.state.tn.us/cctv/cctvknox/live/cam16062.jpg","rtmpVideoUrl":"rtmp://8.15.251.100:1935/rtplive/R1_062","rtspVideoUrl":"rtsp://8.15.251.100:1935/rtplive/R1_062","title":"I-75/640 @ I-275","id":"56"}},{"type":"Feature","geometry":{"type":"Point","coordinates":[-83.95083283,36.00583283]},"properties":{"httpVideoUrl":"http://8.15.251.103:1935/rtplive/R1_041/playlist.m3u8","thumbnailUrl":"http://www.tdot.state.tn.us/cctv/cctvknox/live/cam16041.jpg","rtmpVideoUrl":"rtmp://8.15.251.103:1935/rtplive/R1_041","rtspVideoUrl":"rtsp://8.15.251.103:1935/rtplive/R1_041","title":"I-640 @ Bruhin Rd","id":"57"}},{"type":"Feature","geometry":{"type":"Point","coordinates":[-83.98083283,36.015]},"properties":{"httpVideoUrl":"http://8.15.251.100:1935/rtplive/R1_065/playlist.m3u8","thumbnailUrl":"http://www.tdot.state.tn.us/cctv/cctvknox/live/cam16065.jpg","rtmpVideoUrl":"rtmp://8.15.251.100:1935/rtplive/R1_065","rtspVideoUrl":"rtsp://8.15.251.100:1935/rtplive/R1_065","title":"I-75 North of Merchant Dr","id":"58"}},{"type":"Feature","geometry":{"type":"Point","coordinates":[-83.94839972,35.93719976]},"properties":{"httpVideoUrl":"http://8.15.251.104:1935/rtplive/R1_054/playlist.m3u8","thumbnailUrl":"http://www.tdot.state.tn.us/cctv/cctvknox/live/cam16054.jpg","rtmpVideoUrl":"rtmp://8.15.251.104:1935/rtplive/R1_054","rtspVideoUrl":"rtsp://8.15.251.104:1935/rtplive/R1_054","title":"Alcoa Hwy @ Cherokee Tr","id":"59"}},{"type":"Feature","geometry":{"type":"Point","coordinates":[-86.64040032,36.31911688]},"properties":{"httpVideoUrl":"http://8.15.251.101:1935/rtplive/R3_118/playlist.m3u8","thumbnailUrl":"http://www.tdot.state.tn.us/cctv/cctvnash/live/CCTV_118.JPG","rtmpVideoUrl":"rtmp://8.15.251.101:1935/rtplive/R3_118","rtspVideoUrl":"rtsp://8.15.251.101:1935/rtplive/R3_118","title":"Vietnam Veterans east of Gallatin Pk","id":"61"}},{"type":"Feature","geometry":{"type":"Point","coordinates":[-86.65579964,36.31353349]},"properties":{"httpVideoUrl":"http://8.15.251.101:1935/rtplive/R3_117/playlist.m3u8","thumbnailUrl":"http://www.tdot.state.tn.us/cctv/cctvnash/live/CCTV_117.JPG","rtmpVideoUrl":"rtmp://8.15.251.101:1935/rtplive/R3_117","rtspVideoUrl":"rtsp://8.15.251.101:1935/rtplive/R3_117","title":"Vietnam Veterans @ Gallatin Pk","id":"62"}},{"type":"Feature","geometry":{"type":"Point","coordinates":[-85.31453329,35.04789982]},"properties":{"httpVideoUrl":"http://8.15.251.103:1935/rtplive/R2_025/playlist.m3u8","thumbnailUrl":"http://www.tdot.state.tn.us/cctv/cctvchatt/live/cam16125.jpg","rtmpVideoUrl":"rtmp://8.15.251.103:1935/rtplive/R2_025","rtspVideoUrl":"rtsp://8.15.251.103:1935/rtplive/R2_025","title":"US-27 West of Martin Luther King","id":"64"}},{"type":"Feature","geometry":{"type":"Point","coordinates":[-85.32153289,35.07239992]},"properties":{"httpVideoUrl":"http://8.15.251.103:1935/rtplive/R2_028/playlist.m3u8","thumbnailUrl":"http://www.tdot.state.tn.us/cctv/cctvchatt/live/cam16128.jpg","rtmpVideoUrl":"rtmp://8.15.251.103:1935/rtplive/R2_028","rtspVideoUrl":"rtsp://8.15.251.103:1935/rtplive/R2_028","title":"US-27 @ Whitehall Road","id":"66"}},{"type":"Feature","geometry":{"type":"Point","coordinates":[-85.32405049,35.09153289]},"properties":{"httpVideoUrl":"http://8.15.251.103:1935/rtplive/R2_030/playlist.m3u8","thumbnailUrl":"http://www.tdot.state.tn.us/cctv/cctvchatt/live/cam16130.jpg","rtmpVideoUrl":"rtmp://8.15.251.103:1935/rtplive/R2_030","rtspVideoUrl":"rtsp://8.15.251.103:1935/rtplive/R2_030","title":"US-27 North of Signal Mtn Road","id":"68"}},{"type":"Feature","geometry":{"type":"Point","coordinates":[-85.1245685,35.06683665]},"properties":{"httpVideoUrl":"http://8.15.251.100:1935/rtplive/R2_044/playlist.m3u8","thumbnailUrl":"http://www.tdot.state.tn.us/cctv/cctvchatt/live/cam16144.jpg","rtmpVideoUrl":"rtmp://8.15.251.100:1935/rtplive/R2_044","rtspVideoUrl":"rtsp://8.15.251.100:1935/rtplive/R2_044","title":"I-75 North of Bonny Oaks Drive","id":"18"}},{"type":"Feature","geometry":{"type":"Point","coordinates":[-85.39716657,34.99865017]},"properties":{"httpVideoUrl":"http://8.15.251.101:1935/rtplive/R2_002/playlist.m3u8","thumbnailUrl":"http://www.tdot.state.tn.us/cctv/cctvchatt/live/cam16102.jpg","rtmpVideoUrl":"rtmp://8.15.251.101:1935/rtplive/R2_002","rtspVideoUrl":"rtsp://8.15.251.101:1935/rtplive/R2_002","title":"I-24 @ Welcome Center","id":"21"}},{"type":"Feature","geometry":{"type":"Point","coordinates":[-85.39553812,35.00653691]},"properties":{"httpVideoUrl":"http://8.15.251.101:1935/rtplive/R2_003/playlist.m3u8","thumbnailUrl":"http://www.tdot.state.tn.us/cctv/cctvchatt/live/cam16103.jpg","rtmpVideoUrl":"rtmp://8.15.251.101:1935/rtplive/R2_003","rtspVideoUrl":"rtsp://8.15.251.101:1935/rtplive/R2_003","title":"I-24 @ West of Cummings Road","id":"22"}},{"type":"Feature","geometry":{"type":"Point","coordinates":[-85.38371957,35.0182931]},"properties":{"httpVideoUrl":"http://8.15.251.101:1935/rtplive/R2_005/playlist.m3u8","thumbnailUrl":"http://www.tdot.state.tn.us/cctv/cctvchatt/live/cam16105.jpg","rtmpVideoUrl":"rtmp://8.15.251.101:1935/rtplive/R2_005","rtspVideoUrl":"rtsp://8.15.251.101:1935/rtplive/R2_005","title":"I-24 @ Cummings Highway","id":"24"}},{"type":"Feature","geometry":{"type":"Point","coordinates":[-85.3780336,35.02433313]},"properties":{"httpVideoUrl":"http://8.15.251.101:1935/rtplive/R2_006/playlist.m3u8","thumbnailUrl":"http://www.tdot.state.tn.us/cctv/cctvchatt/live/cam16106.jpg","rtmpVideoUrl":"rtmp://8.15.251.101:1935/rtplive/R2_006","rtspVideoUrl":"rtsp://8.15.251.101:1935/rtplive/R2_006","title":"I-24 East of Cummings Highway","id":"25"}},{"type":"Feature","geometry":{"type":"Point","coordinates":[-85.35438342,35.02946691]},"properties":{"httpVideoUrl":"http://8.15.251.101:1935/rtplive/R2_008/playlist.m3u8","thumbnailUrl":"http://www.tdot.state.tn.us/cctv/cctvchatt/live/cam16108.jpg","rtmpVideoUrl":"rtmp://8.15.251.101:1935/rtplive/R2_008","rtspVideoUrl":"rtsp://8.15.251.101:1935/rtplive/R2_008","title":"I-24 East of Browns Ferry","id":"27"}},{"type":"Feature","geometry":{"type":"Point","coordinates":[-85.33418326,35.01876685]},"properties":{"httpVideoUrl":"http://8.15.251.101:1935/rtplive/R2_010/playlist.m3u8","thumbnailUrl":"http://www.tdot.state.tn.us/cctv/cctvchatt/live/cam16110.jpg","rtmpVideoUrl":"rtmp://8.15.251.101:1935/rtplive/R2_010","rtspVideoUrl":"rtsp://8.15.251.101:1935/rtplive/R2_010","title":"I-24 @ Moccasin Bend","id":"29"}},{"type":"Feature","geometry":{"type":"Point","coordinates":[-85.31935023,35.03231241]},"properties":{"httpVideoUrl":"http://8.15.251.102:1935/rtplive/R2_012/playlist.m3u8","thumbnailUrl":"http://www.tdot.state.tn.us/cctv/cctvchatt/live/cam16112.jpg","rtmpVideoUrl":"rtmp://8.15.251.102:1935/rtplive/R2_012","rtspVideoUrl":"rtsp://8.15.251.102:1935/rtplive/R2_012","title":"I-24/US-27 Junction","id":"30"}},{"type":"Feature","geometry":{"type":"Point","coordinates":[-85.27140012,35.01458358]},"properties":{"httpVideoUrl":"http://8.15.251.102:1935/rtplive/R2_015/playlist.m3u8","thumbnailUrl":"http://www.tdot.state.tn.us/cctv/cctvchatt/live/cam16115.jpg","rtmpVideoUrl":"rtmp://8.15.251.102:1935/rtplive/R2_015","rtspVideoUrl":"rtsp://8.15.251.102:1935/rtplive/R2_015","title":"I-24 @ Westside Drive","id":"32"}},{"type":"Feature","geometry":{"type":"Point","coordinates":[-85.26855965,35.0181895]},"properties":{"httpVideoUrl":"http://8.15.251.102:1935/rtplive/R2_016/playlist.m3u8","thumbnailUrl":"http://www.tdot.state.tn.us/cctv/cctvchatt/live/cam16116.jpg","rtmpVideoUrl":"rtmp://8.15.251.102:1935/rtplive/R2_016","rtspVideoUrl":"rtsp://8.15.251.102:1935/rtplive/R2_016","title":"I-24 @ Old Ringgold Road","id":"33"}},{"type":"Feature","geometry":{"type":"Point","coordinates":[-85.25091632,35.01358379]},"properties":{"httpVideoUrl":"http://8.15.251.102:1935/rtplive/R2_019/playlist.m3u8","thumbnailUrl":"http://www.tdot.state.tn.us/cctv/cctvchatt/live/cam16119.jpg","rtmpVideoUrl":"rtmp://8.15.251.102:1935/rtplive/R2_019","rtspVideoUrl":"rtsp://8.15.251.102:1935/rtplive/R2_019","title":"I-24 @ Germantown Road","id":"35"}},{"type":"Feature","geometry":{"type":"Point","coordinates":[-85.2154999,35.0040002]},"properties":{"httpVideoUrl":"http://8.15.251.103:1935/rtplive/R2_023/playlist.m3u8","thumbnailUrl":"http://www.tdot.state.tn.us/cctv/cctvchatt/live/cam16123.jpg","rtmpVideoUrl":"rtmp://8.15.251.103:1935/rtplive/R2_023","rtspVideoUrl":"rtsp://8.15.251.103:1935/rtplive/R2_023","title":"I-24 @ Spring Creek Road","id":"37"}},{"type":"Feature","geometry":{"type":"Point","coordinates":[-85.2040163,34.98974955]},"properties":{"httpVideoUrl":"http://8.15.251.104:1935/rtplive/R2_033/playlist.m3u8","thumbnailUrl":"http://www.tdot.state.tn.us/cctv/cctvchatt/live/cam16133.jpg","rtmpVideoUrl":"rtmp://8.15.251.104:1935/rtplive/R2_033","rtspVideoUrl":"rtsp://8.15.251.104:1935/rtplive/R2_033","title":"I-75 @ Ringgold Road","id":"38"}},{"type":"Feature","geometry":{"type":"Point","coordinates":[-86.67819956,36.05889962]},"properties":{"httpVideoUrl":"http://8.15.251.104:1935/rtplive/R3_092/playlist.m3u8","thumbnailUrl":"http://www.tdot.state.tn.us/cctv/cctvnash/live/CCTV_092.JPG","rtmpVideoUrl":"rtmp://8.15.251.104:1935/rtplive/R3_092","rtspVideoUrl":"rtsp://8.15.251.104:1935/rtplive/R3_092","title":"I-24 east of Haywood Ln","id":"39"}},{"type":"Feature","geometry":{"type":"Point","coordinates":[-86.68988332,36.06943372]},"properties":{"httpVideoUrl":"http://8.15.251.104:1935/rtplive/R3_091/playlist.m3u8","thumbnailUrl":"http://www.tdot.state.tn.us/cctv/cctvnash/live/CCTV_091.JPG","rtmpVideoUrl":"rtmp://8.15.251.104:1935/rtplive/R3_091","rtspVideoUrl":"rtsp://8.15.251.104:1935/rtplive/R3_091","title":"I-24 @ Haywood Ln","id":"40"}},{"type":"Feature","geometry":{"type":"Point","coordinates":[-85.21133374,35.00474955]},"properties":{"httpVideoUrl":"http://8.15.251.104:1935/rtplive/R2_035/playlist.m3u8","thumbnailUrl":"http://www.tdot.state.tn.us/cctv/cctvchatt/live/cam16135.jpg","rtmpVideoUrl":"rtmp://8.15.251.104:1935/rtplive/R2_035","rtspVideoUrl":"rtsp://8.15.251.104:1935/rtplive/R2_035","title":"I-75/I-24 Junction (Split)","id":"43"}},{"type":"Feature","geometry":{"type":"Point","coordinates":[-83.87111145,36.03027761]},"properties":{"httpVideoUrl":"http://8.15.251.104:1935/rtplive/R1_050/playlist.m3u8","thumbnailUrl":"http://www.tdot.state.tn.us/cctv/cctvknox/live/cam16050.jpg","rtmpVideoUrl":"rtmp://8.15.251.104:1935/rtplive/R1_050","rtspVideoUrl":"rtsp://8.15.251.104:1935/rtplive/R1_050","title":"I-640 @ Millertown Pk","id":"44"}},{"type":"Feature","geometry":{"type":"Point","coordinates":[-83.86055623,36.01833333]},"properties":{"httpVideoUrl":"http://8.15.251.104:1935/rtplive/R1_052/playlist.m3u8","thumbnailUrl":"http://www.tdot.state.tn.us/cctv/cctvknox/live/cam16052.jpg","rtmpVideoUrl":"rtmp://8.15.251.104:1935/rtplive/R1_052","rtspVideoUrl":"rtsp://8.15.251.104:1935/rtplive/R1_052","title":"I-640 North of I-40","id":"47"}},{"type":"Feature","geometry":{"type":"Point","coordinates":[-83.85166667,36.01277811]},"properties":{"httpVideoUrl":"http://8.15.251.102:1935/rtplive/R1_030/playlist.m3u8","thumbnailUrl":"http://www.tdot.state.tn.us/cctv/cctvknox/live/cam16030.jpg","rtmpVideoUrl":"rtmp://8.15.251.102:1935/rtplive/R1_030","rtspVideoUrl":"rtsp://8.15.251.102:1935/rtplive/R1_030","title":"I-40 West of Asheville Hwy","id":"48"}},{"type":"Feature","geometry":{"type":"Point","coordinates":[-83.84166667,36.01083283]},"properties":{"httpVideoUrl":"http://8.15.251.102:1935/rtplive/R1_031/playlist.m3u8","thumbnailUrl":"http://www.tdot.state.tn.us/cctv/cctvknox/live/cam16031.jpg","rtmpVideoUrl":"rtmp://8.15.251.102:1935/rtplive/R1_031","rtspVideoUrl":"rtsp://8.15.251.102:1935/rtplive/R1_031","title":"I-40 @ Asheville Hwy","id":"49"}},{"type":"Feature","geometry":{"type":"Point","coordinates":[-83.97305572,35.98805572]},"properties":{"httpVideoUrl":"http://8.15.251.102:1935/rtplive/R1_037/playlist.m3u8","thumbnailUrl":"http://www.tdot.state.tn.us/cctv/cctvknox/live/cam16037.jpg","rtmpVideoUrl":"rtmp://8.15.251.102:1935/rtplive/R1_037","rtspVideoUrl":"rtsp://8.15.251.102:1935/rtplive/R1_037","title":"I-75/640 @ Wilson Rd","id":"51"}},{"type":"Feature","geometry":{"type":"Point","coordinates":[-89.91683263,35.1880004]},"properties":{"httpVideoUrl":"http://8.15.251.101:1935/rtplive/R4_044/playlist.m3u8","thumbnailUrl":"http://www.tdot.state.tn.us/cctv/cctvmemp/live/cam160044.jpg","rtmpVideoUrl":"rtmp://8.15.251.101:1935/rtplive/R4_044","rtspVideoUrl":"rtsp://8.15.251.101:1935/rtplive/R4_044","title":"I-40 e/o SR14, Austin Peay","id":"121"}},{"type":"Feature","geometry":{"type":"Point","coordinates":[-89.90236673,35.16861698]},"properties":{"httpVideoUrl":"http://8.15.251.101:1935/rtplive/R4_046/playlist.m3u8","thumbnailUrl":"http://www.tdot.state.tn.us/cctv/cctvmemp/live/cam160046.jpg","rtmpVideoUrl":"rtmp://8.15.251.101:1935/rtplive/R4_046","rtspVideoUrl":"rtsp://8.15.251.101:1935/rtplive/R4_046","title":"I-40 @ Covington Pike","id":"123"}},{"type":"Feature","geometry":{"type":"Point","coordinates":[-89.89441662,35.15780024]},"properties":{"httpVideoUrl":"http://8.15.251.101:1935/rtplive/R4_047/playlist.m3u8","thumbnailUrl":"http://www.tdot.state.tn.us/cctv/cctvmemp/live/cam160047.jpg","rtmpVideoUrl":"rtmp://8.15.251.101:1935/rtplive/R4_047","rtspVideoUrl":"rtsp://8.15.251.101:1935/rtplive/R4_047","title":"I-40 @ Summer","id":"124"}},{"type":"Feature","geometry":{"type":"Point","coordinates":[-86.78503319,36.01371656]},"properties":{"httpVideoUrl":"http://8.15.251.103:1935/rtplive/R3_083/playlist.m3u8","thumbnailUrl":"http://www.tdot.state.tn.us/cctv/cctvnash/live/CCTV_083.JPG","rtmpVideoUrl":"rtmp://8.15.251.103:1935/rtplive/R3_083","rtspVideoUrl":"rtsp://8.15.251.103:1935/rtplive/R3_083","title":"I-65 @ Harpeth River","id":"126"}},{"type":"Feature","geometry":{"type":"Point","coordinates":[-86.78385033,36.0279833]},"properties":{"httpVideoUrl":"http://8.15.251.103:1935/rtplive/R3_084/playlist.m3u8","thumbnailUrl":"http://www.tdot.state.tn.us/cctv/cctvnash/live/CCTV_084.JPG","rtmpVideoUrl":"rtmp://8.15.251.103:1935/rtplive/R3_084","rtspVideoUrl":"rtsp://8.15.251.103:1935/rtplive/R3_084","title":"I-65 south of Old Hickory Blvd (Brentwood)","id":"127"}},{"type":"Feature","geometry":{"type":"Point","coordinates":[-83.97916717,35.9525005]},"properties":{"httpVideoUrl":"http://8.15.251.100:1935/rtplive/R1_015/playlist.m3u8","thumbnailUrl":"http://www.tdot.state.tn.us/cctv/cctvknox/live/cam16015.jpg","rtmpVideoUrl":"rtmp://8.15.251.100:1935/rtplive/R1_015","rtspVideoUrl":"rtsp://8.15.251.100:1935/rtplive/R1_015","title":"I-40/75 West of I-75/640","id":"128"}},{"type":"Feature","geometry":{"type":"Point","coordinates":[-83.98,35.96888855]},"properties":{"httpVideoUrl":"http://8.15.251.102:1935/rtplive/R1_034/playlist.m3u8","thumbnailUrl":"http://www.tdot.state.tn.us/cctv/cctvknox/live/cam16034.jpg","rtmpVideoUrl":"rtmp://8.15.251.102:1935/rtplive/R1_034","rtspVideoUrl":"rtsp://8.15.251.102:1935/rtplive/R1_034","title":"I-75/640 South of Western Ave","id":"129"}},{"type":"Feature","geometry":{"type":"Point","coordinates":[-83.95527761,35.96083283]},"properties":{"httpVideoUrl":"http://8.15.251.100:1935/rtplive/R1_017/playlist.m3u8","thumbnailUrl":"http://www.tdot.state.tn.us/cctv/cctvknox/live/cam16017.jpg","rtmpVideoUrl":"rtmp://8.15.251.100:1935/rtplive/R1_017","rtspVideoUrl":"rtsp://8.15.251.100:1935/rtplive/R1_017","title":"I-40 @ Middlebrook Pk","id":"131"}},{"type":"Feature","geometry":{"type":"Point","coordinates":[-83.89777811,36.02888855]},"properties":{"httpVideoUrl":"http://8.15.251.103:1935/rtplive/R1_048/playlist.m3u8","thumbnailUrl":"http://www.tdot.state.tn.us/cctv/cctvknox/live/cam16048.jpg","rtmpVideoUrl":"rtmp://8.15.251.103:1935/rtplive/R1_048","rtspVideoUrl":"rtsp://8.15.251.103:1935/rtplive/R1_048","title":"I-640 EB West of Washington Pk","id":"133"}},{"type":"Feature","geometry":{"type":"Point","coordinates":[-83.88722189,36.0325005]},"properties":{"httpVideoUrl":"http://8.15.251.103:1935/rtplive/R1_049/playlist.m3u8","thumbnailUrl":"http://www.tdot.state.tn.us/cctv/cctvknox/live/cam16049.jpg","rtmpVideoUrl":"rtmp://8.15.251.103:1935/rtplive/R1_049","rtspVideoUrl":"rtsp://8.15.251.103:1935/rtplive/R1_049","title":"I-640 @ Washington Pk","id":"135"}},{"type":"Feature","geometry":{"type":"Point","coordinates":[-83.87416717,36.0075005]},"properties":{"httpVideoUrl":"http://8.15.251.101:1935/rtplive/R1_028/playlist.m3u8","thumbnailUrl":"http://www.tdot.state.tn.us/cctv/cctvknox/live/cam16028.jpg","rtmpVideoUrl":"rtmp://8.15.251.101:1935/rtplive/R1_028","rtspVideoUrl":"rtsp://8.15.251.101:1935/rtplive/R1_028","title":"I-40 @ Rutledge Pk","id":"137"}},{"type":"Feature","geometry":{"type":"Point","coordinates":[-86.73672702,36.14302454]},"properties":{"httpVideoUrl":"http://8.15.251.100:1935/rtplive/R3_001/playlist.m3u8","thumbnailUrl":"http://www.tdot.state.tn.us/cctv/cctvnash/live/CCTV_001.jpg","rtmpVideoUrl":"rtmp://8.15.251.100:1935/rtplive/R3_001","rtspVideoUrl":"rtsp://8.15.251.100:1935/rtplive/R3_001","title":"I-40 east of Elm Hill Pk","id":"207"}},{"type":"Feature","geometry":{"type":"Point","coordinates":[-86.72861698,36.13817642]},"properties":{"httpVideoUrl":"http://8.15.251.100:1935/rtplive/R3_058/playlist.m3u8","thumbnailUrl":"http://www.tdot.state.tn.us/cctv/cctvnash/live/CCTV_058.jpg","rtmpVideoUrl":"rtmp://8.15.251.100:1935/rtplive/R3_058","rtspVideoUrl":"rtsp://8.15.251.100:1935/rtplive/R3_058","title":"I-40 @ I-24 Jct","id":"209"}},{"type":"Feature","geometry":{"type":"Point","coordinates":[-86.75229129,36.19802756]},"properties":{"httpVideoUrl":"http://8.15.251.103:1935/rtplive/R3_036/playlist.m3u8","thumbnailUrl":"http://www.tdot.state.tn.us/cctv/cctvnash/live/CCTV_036.jpg","rtmpVideoUrl":"rtmp://8.15.251.103:1935/rtplive/R3_036","rtspVideoUrl":"rtsp://8.15.251.103:1935/rtplive/R3_036","title":"Ellington Parkway south of Trinity Ln","id":"211"}},{"type":"Feature","geometry":{"type":"Point","coordinates":[-86.75049588,36.20475759]},"properties":{"httpVideoUrl":"http://8.15.251.103:1935/rtplive/R3_037/playlist.m3u8","thumbnailUrl":"http://www.tdot.state.tn.us/cctv/cctvnash/live/CCTV_037.jpg","rtmpVideoUrl":"rtmp://8.15.251.103:1935/rtplive/R3_037","rtspVideoUrl":"rtsp://8.15.251.103:1935/rtplive/R3_037","title":"Ellington Parkway @ Trinity Ln","id":"212"}},{"type":"Feature","geometry":{"type":"Point","coordinates":[-86.74793603,36.23172299]},"properties":{"httpVideoUrl":"http://8.15.251.103:1935/rtplive/R3_039/playlist.m3u8","thumbnailUrl":"http://www.tdot.state.tn.us/cctv/cctvnash/live/CCTV_039.jpg","rtmpVideoUrl":"rtmp://8.15.251.103:1935/rtplive/R3_039","rtspVideoUrl":"rtsp://8.15.251.103:1935/rtplive/R3_039","title":"Ellington Parkway north of Broadmoor Dr","id":"214"}},{"type":"Feature","geometry":{"type":"Point","coordinates":[-86.7963277,36.16762623]},"properties":{"httpVideoUrl":"http://8.15.251.102:1935/rtplive/R3_028/playlist.m3u8","thumbnailUrl":"http://www.tdot.state.tn.us/cctv/cctvnash/live/CCTV_028.jpg","rtmpVideoUrl":"rtmp://8.15.251.102:1935/rtplive/R3_028","rtspVideoUrl":"rtsp://8.15.251.102:1935/rtplive/R3_028","title":"I-40 west of Charlotte Ave","id":"216"}},{"type":"Feature","geometry":{"type":"Point","coordinates":[-86.75031382,36.24039228]},"properties":{"httpVideoUrl":"http://8.15.251.100:1935/rtplive/R3_060/playlist.m3u8","thumbnailUrl":"http://www.tdot.state.tn.us/cctv/cctvnash/live/CCTV_060.jpg","rtmpVideoUrl":"rtmp://8.15.251.100:1935/rtplive/R3_060","rtspVideoUrl":"rtsp://8.15.251.100:1935/rtplive/R3_060","title":"Briley Pkwy @ I-65","id":"218"}},{"type":"Feature","geometry":{"type":"Point","coordinates":[-86.79738383,35.99743311]},"properties":{"httpVideoUrl":"http://8.15.251.104:1935/rtplive/R3_146/playlist.m3u8","thumbnailUrl":"http://www.tdot.state.tn.us/cctv/cctvnash/live/CCTV_146.JPG","rtmpVideoUrl":"rtmp://8.15.251.104:1935/rtplive/R3_146","rtspVideoUrl":"rtsp://8.15.251.104:1935/rtplive/R3_146","title":"I-65 @ Concord Rd","id":"219"}},{"type":"Feature","geometry":{"type":"Point","coordinates":[-86.69894689,36.14467713]},"properties":{"httpVideoUrl":"http://8.15.251.101:1935/rtplive/R3_062/playlist.m3u8","thumbnailUrl":"http://www.tdot.state.tn.us/cctv/cctvnash/live/CCTV_062.jpg","rtmpVideoUrl":"rtmp://8.15.251.101:1935/rtplive/R3_062","rtspVideoUrl":"rtsp://8.15.251.101:1935/rtplive/R3_062","title":"I-40 @ Briley Pkwy","id":"220"}},{"type":"Feature","geometry":{"type":"Point","coordinates":[-86.82215349,36.14847516]},"properties":{"httpVideoUrl":"http://8.15.251.101:1935/rtplive/R3_063/playlist.m3u8","thumbnailUrl":"http://www.tdot.state.tn.us/cctv/cctvnash/live/CCTV_063.jpg","rtmpVideoUrl":"rtmp://8.15.251.101:1935/rtplive/R3_063","rtspVideoUrl":"rtsp://8.15.251.101:1935/rtplive/R3_063","title":"I-440 east of I-40 Jct","id":"221"}},{"type":"Feature","geometry":{"type":"Point","coordinates":[-86.81915007,36.13280326]},"properties":{"httpVideoUrl":"http://8.15.251.101:1935/rtplive/R3_065/playlist.m3u8","thumbnailUrl":"http://www.tdot.state.tn.us/cctv/cctvnash/live/CCTV_065.jpg","rtmpVideoUrl":"rtmp://8.15.251.101:1935/rtplive/R3_065","rtspVideoUrl":"rtsp://8.15.251.101:1935/rtplive/R3_065","title":"I-440 east of West End Ave","id":"223"}},{"type":"Feature","geometry":{"type":"Point","coordinates":[-90.00274995,35.03780024]},"properties":{"httpVideoUrl":"http://8.15.251.104:1935/rtplive/R4_078/playlist.m3u8","thumbnailUrl":"http://www.tdot.state.tn.us/cctv/cctvmemp/live/cam160078.jpg","rtmpVideoUrl":"rtmp://8.15.251.104:1935/rtplive/R4_078","rtspVideoUrl":"rtsp://8.15.251.104:1935/rtplive/R4_078","title":"I-55 n/o Shelby Dr.","id":"139"}},{"type":"Feature","geometry":{"type":"Point","coordinates":[-90.00236673,35.01138302]},"properties":{"httpVideoUrl":"http://8.15.251.104:1935/rtplive/R4_080/playlist.m3u8","thumbnailUrl":"http://www.tdot.state.tn.us/cctv/cctvmemp/live/cam160080.jpg","rtmpVideoUrl":"rtmp://8.15.251.104:1935/rtplive/R4_080","rtspVideoUrl":"rtsp://8.15.251.104:1935/rtplive/R4_080","title":"I-55 @ Holmes Rd.","id":"141"}},{"type":"Feature","geometry":{"type":"Point","coordinates":[-90.00228324,35.00108328]},"properties":{"httpVideoUrl":"http://8.15.251.100:1935/rtplive/R4_081/playlist.m3u8","thumbnailUrl":"http://www.tdot.state.tn.us/cctv/cctvmemp/live/cam160081.jpg","rtmpVideoUrl":"rtmp://8.15.251.100:1935/rtplive/R4_081","rtspVideoUrl":"rtsp://8.15.251.100:1935/rtplive/R4_081","title":"I-55 @ MS/TN State Line","id":"142"}},{"type":"Feature","geometry":{"type":"Point","coordinates":[-90.02436733,35.13788272]},"properties":{"httpVideoUrl":"http://8.15.251.100:1935/rtplive/R4_083/playlist.m3u8","thumbnailUrl":"http://www.tdot.state.tn.us/cctv/cctvmemp/live/cam160083.jpg","rtmpVideoUrl":"rtmp://8.15.251.100:1935/rtplive/R4_083","rtspVideoUrl":"rtsp://8.15.251.100:1935/rtplive/R4_083","title":"I-240 @ Union","id":"144"}},{"type":"Feature","geometry":{"type":"Point","coordinates":[-90.02626735,35.11778314]},"properties":{"httpVideoUrl":"http://8.15.251.100:1935/rtplive/R4_086/playlist.m3u8","thumbnailUrl":"http://www.tdot.state.tn.us/cctv/cctvmemp/live/cam160086.jpg","rtmpVideoUrl":"rtmp://8.15.251.100:1935/rtplive/R4_086","rtspVideoUrl":"rtsp://8.15.251.100:1935/rtplive/R4_086","title":"I-240 n/o South Parkway","id":"146"}},{"type":"Feature","geometry":{"type":"Point","coordinates":[-90.02935023,35.10119996]},"properties":{"httpVideoUrl":"http://8.15.251.100:1935/rtplive/R4_088/playlist.m3u8","thumbnailUrl":"http://www.tdot.state.tn.us/cctv/cctvmemp/live/cam160088.jpg","rtmpVideoUrl":"rtmp://8.15.251.100:1935/rtplive/R4_088","rtspVideoUrl":"rtsp://8.15.251.100:1935/rtplive/R4_088","title":"I-240 s/o South Parkway","id":"147"}},{"type":"Feature","geometry":{"type":"Point","coordinates":[-90.02578254,35.08324985]},"properties":{"httpVideoUrl":"http://8.15.251.100:1935/rtplive/R4_090/playlist.m3u8","thumbnailUrl":"http://www.tdot.state.tn.us/cctv/cctvmemp/live/cam160090.jpg","rtmpVideoUrl":"rtmp://8.15.251.100:1935/rtplive/R4_090","rtspVideoUrl":"rtsp://8.15.251.100:1935/rtplive/R4_090","title":"I-240 @ Norris, n/o I-55 Jct.","id":"149"}},{"type":"Feature","geometry":{"type":"Point","coordinates":[-90.00795011,35.07304969]},"properties":{"httpVideoUrl":"http://8.15.251.101:1935/rtplive/R4_091/playlist.m3u8","thumbnailUrl":"http://www.tdot.state.tn.us/cctv/cctvmemp/live/cam160091.jpg","rtmpVideoUrl":"rtmp://8.15.251.101:1935/rtplive/R4_091","rtspVideoUrl":"rtsp://8.15.251.101:1935/rtplive/R4_091","title":"I-240 @ Millbranch","id":"150"}},{"type":"Feature","geometry":{"type":"Point","coordinates":[-89.97488332,35.07641722]},"properties":{"httpVideoUrl":"http://8.15.251.101:1935/rtplive/R4_093/playlist.m3u8","thumbnailUrl":"http://www.tdot.state.tn.us/cctv/cctvmemp/live/cam160093.jpg","rtmpVideoUrl":"rtmp://8.15.251.101:1935/rtplive/R4_093","rtspVideoUrl":"rtsp://8.15.251.101:1935/rtplive/R4_093","title":"I-240 e/o Airways Blvd.","id":"152"}},{"type":"Feature","geometry":{"type":"Point","coordinates":[-89.93113257,35.07961678]},"properties":{"httpVideoUrl":"http://8.15.251.101:1935/rtplive/R4_096/playlist.m3u8","thumbnailUrl":"http://www.tdot.state.tn.us/cctv/cctvmemp/live/cam160096.jpg","rtmpVideoUrl":"rtmp://8.15.251.101:1935/rtplive/R4_096","rtspVideoUrl":"rtsp://8.15.251.101:1935/rtplive/R4_096","title":"I-240 @ Getwell","id":"154"}},{"type":"Feature","geometry":{"type":"Point","coordinates":[-89.92354959,35.07859988]},"properties":{"httpVideoUrl":"http://8.15.251.101:1935/rtplive/R4_097/playlist.m3u8","thumbnailUrl":"http://www.tdot.state.tn.us/cctv/cctvmemp/live/cam160097.jpg","rtmpVideoUrl":"rtmp://8.15.251.101:1935/rtplive/R4_097","rtspVideoUrl":"rtsp://8.15.251.101:1935/rtplive/R4_097","title":"I-240 e/o Getwell","id":"155"}},{"type":"Feature","geometry":{"type":"Point","coordinates":[-86.80039228,36.1723617]},"properties":{"httpVideoUrl":"http://8.15.251.103:1935/rtplive/R3_031/playlist.m3u8","thumbnailUrl":"http://www.tdot.state.tn.us/cctv/cctvnash/live/CCTV_031.jpg","rtmpVideoUrl":"rtmp://8.15.251.103:1935/rtplive/R3_031","rtspVideoUrl":"rtsp://8.15.251.103:1935/rtplive/R3_031","title":"I-65 @ I-40 (West Loop)","id":"157"}},{"type":"Feature","geometry":{"type":"Point","coordinates":[-86.77441159,36.1879139]},"properties":{"httpVideoUrl":"http://8.15.251.100:1935/rtplive/R3_008/playlist.m3u8","thumbnailUrl":"http://www.tdot.state.tn.us/cctv/cctvnash/live/CCTV_008.jpg","rtmpVideoUrl":"rtmp://8.15.251.100:1935/rtplive/R3_008","rtspVideoUrl":"rtsp://8.15.251.100:1935/rtplive/R3_008","title":"I-24 east of I-65 Jct","id":"158"}},{"type":"Feature","geometry":{"type":"Point","coordinates":[-86.7934993,36.1888282]},"properties":{"httpVideoUrl":"http://8.15.251.104:1935/rtplive/R3_046/playlist.m3u8","thumbnailUrl":"http://www.tdot.state.tn.us/cctv/cctvnash/live/CCTV_046.jpg","rtmpVideoUrl":"rtmp://8.15.251.104:1935/rtplive/R3_046","rtspVideoUrl":"rtsp://8.15.251.104:1935/rtplive/R3_046","title":"I-65 north of Rosa Parks Blvd","id":"162"}},{"type":"Feature","geometry":{"type":"Point","coordinates":[-86.78477067,36.19233957]},"properties":{"httpVideoUrl":"http://8.15.251.103:1935/rtplive/R3_033/playlist.m3u8","thumbnailUrl":"http://www.tdot.state.tn.us/cctv/cctvnash/live/CCTV_033.jpg","rtmpVideoUrl":"rtmp://8.15.251.103:1935/rtplive/R3_033","rtspVideoUrl":"rtsp://8.15.251.103:1935/rtplive/R3_033","title":"I-65 @ Cumberland River","id":"163"}},{"type":"Feature","geometry":{"type":"Point","coordinates":[-86.77528264,36.1988614]},"properties":{"httpVideoUrl":"http://8.15.251.100:1935/rtplive/R3_010/playlist.m3u8","thumbnailUrl":"http://www.tdot.state.tn.us/cctv/cctvnash/live/CCTV_010.jpg","rtmpVideoUrl":"rtmp://8.15.251.100:1935/rtplive/R3_010","rtspVideoUrl":"rtsp://8.15.251.100:1935/rtplive/R3_010","title":"I-65 @ Fern Ave","id":"164"}},{"type":"Feature","geometry":{"type":"Point","coordinates":[-86.77253772,36.22156608]},"properties":{"httpVideoUrl":"http://8.15.251.101:1935/rtplive/R3_012/playlist.m3u8","thumbnailUrl":"http://www.tdot.state.tn.us/cctv/cctvnash/live/CCTV_012.jpg","rtmpVideoUrl":"rtmp://8.15.251.101:1935/rtplive/R3_012","rtspVideoUrl":"rtsp://8.15.251.101:1935/rtplive/R3_012","title":"I-65 @ I-24 Junction, n/o Trinity Ln","id":"166"}},{"type":"Feature","geometry":{"type":"Point","coordinates":[-86.78210823,36.22942265]},"properties":{"httpVideoUrl":"http://8.15.251.104:1935/rtplive/R3_041/playlist.m3u8","thumbnailUrl":"http://www.tdot.state.tn.us/cctv/cctvnash/live/CCTV_041.jpg","rtmpVideoUrl":"rtmp://8.15.251.104:1935/rtplive/R3_041","rtspVideoUrl":"rtsp://8.15.251.104:1935/rtplive/R3_041","title":"I-24 west of I-65 Jct","id":"167"}},{"type":"Feature","geometry":{"type":"Point","coordinates":[-86.77269966,36.05853349]},"properties":{"httpVideoUrl":"http://8.15.251.103:1935/rtplive/R3_087/playlist.m3u8","thumbnailUrl":"http://www.tdot.state.tn.us/cctv/cctvnash/live/CCTV_087.JPG","rtmpVideoUrl":"rtmp://8.15.251.103:1935/rtplive/R3_087","rtspVideoUrl":"rtsp://8.15.251.103:1935/rtplive/R3_087","title":"I-65 south of Hogan Rd","id":"169"}},{"type":"Feature","geometry":{"type":"Point","coordinates":[-86.64048381,36.03260008]},"properties":{"httpVideoUrl":"http://8.15.251.104:1935/rtplive/R3_095/playlist.m3u8","thumbnailUrl":"http://www.tdot.state.tn.us/cctv/cctvnash/live/CCTV_095.JPG","rtmpVideoUrl":"rtmp://8.15.251.104:1935/rtplive/R3_095","rtspVideoUrl":"rtsp://8.15.251.104:1935/rtplive/R3_095","title":"I-24 east of Hickory Hollow Pkwy","id":"170"}},{"type":"Feature","geometry":{"type":"Point","coordinates":[-86.78659726,36.23726111]},"properties":{"httpVideoUrl":"http://8.15.251.104:1935/rtplive/R3_042/playlist.m3u8","thumbnailUrl":"http://www.tdot.state.tn.us/cctv/cctvnash/live/CCTV_042.jpg","rtmpVideoUrl":"rtmp://8.15.251.104:1935/rtplive/R3_042","rtspVideoUrl":"rtsp://8.15.251.104:1935/rtplive/R3_042","title":"I-24 @ Briley Pkwy (West)","id":"171"}},{"type":"Feature","geometry":{"type":"Point","coordinates":[-86.78600081,36.25225608]},"properties":{"httpVideoUrl":"http://8.15.251.104:1935/rtplive/R3_048/playlist.m3u8","thumbnailUrl":"http://www.tdot.state.tn.us/cctv/cctvnash/live/CCTV_048.jpg","rtmpVideoUrl":"rtmp://8.15.251.104:1935/rtplive/R3_048","rtspVideoUrl":"rtsp://8.15.251.104:1935/rtplive/R3_048","title":"I-24 west of Briley Pkwy (West)","id":"172"}},{"type":"Feature","geometry":{"type":"Point","coordinates":[-86.88360692,36.14346007]},"properties":{"httpVideoUrl":"http://8.15.251.100:1935/rtplive/R3_052/playlist.m3u8","thumbnailUrl":"http://www.tdot.state.tn.us/cctv/cctvnash/live/CCTV_052.jpg","rtmpVideoUrl":"rtmp://8.15.251.100:1935/rtplive/R3_052","rtspVideoUrl":"rtsp://8.15.251.100:1935/rtplive/R3_052","title":"I-40 east of Charlotte Pk","id":"173"}},{"type":"Feature","geometry":{"type":"Point","coordinates":[-89.90708308,35.0780175]},"properties":{"httpVideoUrl":"http://8.15.251.101:1935/rtplive/R4_099/playlist.m3u8","thumbnailUrl":"http://www.tdot.state.tn.us/cctv/cctvmemp/live/cam160099.jpg","rtmpVideoUrl":"rtmp://8.15.251.101:1935/rtplive/R4_099","rtspVideoUrl":"rtsp://8.15.251.101:1935/rtplive/R4_099","title":"I-240 @ Perkins","id":"176"}},{"type":"Feature","geometry":{"type":"Point","coordinates":[-89.89293301,35.08386743]},"properties":{"httpVideoUrl":"http://8.15.251.101:1935/rtplive/R4_100/playlist.m3u8","thumbnailUrl":"http://www.tdot.state.tn.us/cctv/cctvmemp/live/cam160100.jpg","rtmpVideoUrl":"rtmp://8.15.251.101:1935/rtplive/R4_100","rtspVideoUrl":"rtsp://8.15.251.101:1935/rtplive/R4_100","title":"I-240 @ Mt. Moriah","id":"177"}},{"type":"Feature","geometry":{"type":"Point","coordinates":[-83.92805572,35.96916717]},"properties":{"httpVideoUrl":"http://8.15.251.101:1935/rtplive/R1_021/playlist.m3u8","thumbnailUrl":"http://www.tdot.state.tn.us/cctv/cctvknox/live/cam16021.jpg","rtmpVideoUrl":"rtmp://8.15.251.101:1935/rtplive/R1_021","rtspVideoUrl":"rtsp://8.15.251.101:1935/rtplive/R1_021","title":"I-40 @ I-275","id":"178"}},{"type":"Feature","geometry":{"type":"Point","coordinates":[-83.93972239,35.98388855]},"properties":{"httpVideoUrl":"http://8.15.251.104:1935/rtplive/R1_059/playlist.m3u8","thumbnailUrl":"http://www.tdot.state.tn.us/cctv/cctvknox/live/cam16059.jpg","rtmpVideoUrl":"rtmp://8.15.251.104:1935/rtplive/R1_059","rtspVideoUrl":"rtsp://8.15.251.104:1935/rtplive/R1_059","title":"I-275 @ Woodland Av","id":"180"}},{"type":"Feature","geometry":{"type":"Point","coordinates":[-83.93805572,36.00944377]},"properties":{"httpVideoUrl":"http://8.15.251.103:1935/rtplive/R1_042/playlist.m3u8","thumbnailUrl":"http://www.tdot.state.tn.us/cctv/cctvknox/live/cam16042.jpg","rtmpVideoUrl":"rtmp://8.15.251.103:1935/rtplive/R1_042","rtspVideoUrl":"rtsp://8.15.251.103:1935/rtplive/R1_042","title":"I-640 @ The Hague","id":"181"}},{"type":"Feature","geometry":{"type":"Point","coordinates":[-83.921884,36.018864]},"properties":{"httpVideoUrl":"http://8.15.251.103:1935/rtplive/R1_044/playlist.m3u8","thumbnailUrl":"http://www.tdot.state.tn.us/cctv/cctvknox/live/cam16044.jpg","rtmpVideoUrl":"rtmp://8.15.251.103:1935/rtplive/R1_044","rtspVideoUrl":"rtsp://8.15.251.103:1935/rtplive/R1_044","title":"I-640 @ Broadway","id":"183"}},{"type":"Feature","geometry":{"type":"Point","coordinates":[-83.89111145,35.99861094]},"properties":{"httpVideoUrl":"http://8.15.251.101:1935/rtplive/R1_026/playlist.m3u8","thumbnailUrl":"http://www.tdot.state.tn.us/cctv/cctvknox/live/cam16026.jpg","rtmpVideoUrl":"rtmp://8.15.251.101:1935/rtplive/R1_026","rtspVideoUrl":"rtsp://8.15.251.101:1935/rtplive/R1_026","title":"I-40 East of Cherry St","id":"185"}},{"type":"Feature","geometry":{"type":"Point","coordinates":[-86.77556628,36.0479833]},"properties":{"httpVideoUrl":"http://8.15.251.103:1935/rtplive/R3_086/playlist.m3u8","thumbnailUrl":"http://www.tdot.state.tn.us/cctv/cctvnash/live/CCTV_086.JPG","rtmpVideoUrl":"rtmp://8.15.251.103:1935/rtplive/R3_086","rtspVideoUrl":"rtsp://8.15.251.103:1935/rtplive/R3_086","title":"I-65 north of Old Hickory Blvd (Brentwood)","id":"187"}},{"type":"Feature","geometry":{"type":"Point","coordinates":[-83.91,36.02305572]},"properties":{"httpVideoUrl":"http://8.15.251.103:1935/rtplive/R1_046/playlist.m3u8","thumbnailUrl":"http://www.tdot.state.tn.us/cctv/cctvknox/live/cam16046.jpg","rtmpVideoUrl":"rtmp://8.15.251.103:1935/rtplive/R1_046","rtspVideoUrl":"rtsp://8.15.251.103:1935/rtplive/R1_046","title":"I-640 EB East Of Broadway","id":"188"}},{"type":"Feature","geometry":{"type":"Point","coordinates":[-84.69056025,35.88582981]},"properties":{"httpVideoUrl":"http://8.15.251.101:1935/rtplive/R1_100/playlist.m3u8","thumbnailUrl":"http://www.tdot.state.tn.us/cctv/cctvknox/live/cam16100.jpg","rtmpVideoUrl":"rtmp://8.15.251.101:1935/rtplive/R1_100","rtspVideoUrl":"rtsp://8.15.251.101:1935/rtplive/R1_100","title":"Rockwood Mountain: I-40 East at Mile Marker 341.3","id":"189"}},{"type":"Feature","geometry":{"type":"Point","coordinates":[-83.90941662,35.98579964]},"properties":{"httpVideoUrl":"http://8.15.251.101:1935/rtplive/R1_024/playlist.m3u8","thumbnailUrl":"http://www.tdot.state.tn.us/cctv/cctvknox/live/cam16024.jpg","rtmpVideoUrl":"rtmp://8.15.251.101:1935/rtplive/R1_024","rtspVideoUrl":"rtsp://8.15.251.101:1935/rtplive/R1_024","title":"I-40 @ East of Hall of Fame","id":"190"}},{"type":"Feature","geometry":{"type":"Point","coordinates":[-83.8192,36.00943]},"properties":{"httpVideoUrl":"http://8.15.251.101:1935/rtplive/R1_086/playlist.m3u8","thumbnailUrl":"http://www.tdot.state.tn.us/cctv/cctvknox/live/cam16086.jpg","rtmpVideoUrl":"rtmp://8.15.251.101:1935/rtplive/R1_086","rtspVideoUrl":"rtsp://8.15.251.101:1935/rtplive/R1_086","title":"I-40 East of Holston River Bridge","id":"191"}},{"type":"Feature","geometry":{"type":"Point","coordinates":[-86.7346892,36.27826896]},"properties":{"httpVideoUrl":"http://8.15.251.101:1935/rtplive/R3_018/playlist.m3u8","thumbnailUrl":"http://www.tdot.state.tn.us/cctv/cctvnash/live/CCTV_018.jpg","rtmpVideoUrl":"rtmp://8.15.251.101:1935/rtplive/R3_018","rtspVideoUrl":"rtsp://8.15.251.101:1935/rtplive/R3_018","title":"I-65 north of Old Hickory Blvd (Madison)","id":"193"}},{"type":"Feature","geometry":{"type":"Point","coordinates":[-85.08386642,35.08114967]},"properties":{"httpVideoUrl":"http://8.15.251.100:1935/rtplive/R2_047/playlist.m3u8","thumbnailUrl":"http://www.tdot.state.tn.us/cctv/cctvchatt/live/cam16147.jpg","rtmpVideoUrl":"rtmp://8.15.251.100:1935/rtplive/R2_047","rtspVideoUrl":"rtsp://8.15.251.100:1935/rtplive/R2_047","title":"I-75 South of Ooltewah exit","id":"195"}},{"type":"Feature","geometry":{"type":"Point","coordinates":[-85.05716657,35.09335043]},"properties":{"httpVideoUrl":"http://8.15.251.103:1935/rtplive/R2_071/playlist.m3u8","thumbnailUrl":"http://www.tdot.state.tn.us/cctv/cctvchatt/live/cam16171.jpg","rtmpVideoUrl":"rtmp://8.15.251.103:1935/rtplive/R2_071","rtspVideoUrl":"rtsp://8.15.251.103:1935/rtplive/R2_071","title":"I-75 North of Ooltewah exit","id":"196"}},{"type":"Feature","geometry":{"type":"Point","coordinates":[-85.31836653,35.03961678]},"properties":{"httpVideoUrl":"http://8.15.251.103:1935/rtplive/R2_024/playlist.m3u8","thumbnailUrl":"http://www.tdot.state.tn.us/cctv/cctvchatt/live/cam16124.jpg","rtmpVideoUrl":"rtmp://8.15.251.103:1935/rtplive/R2_024","rtspVideoUrl":"rtsp://8.15.251.103:1935/rtplive/R2_024","title":"US-27 West of Main St","id":"198"}},{"type":"Feature","geometry":{"type":"Point","coordinates":[-86.75884731,36.16018306]},"properties":{"httpVideoUrl":"http://8.15.251.100:1935/rtplive/R3_005/playlist.m3u8","thumbnailUrl":"http://www.tdot.state.tn.us/cctv/cctvnash/live/CCTV_005.jpg","rtmpVideoUrl":"rtmp://8.15.251.100:1935/rtplive/R3_005","rtspVideoUrl":"rtsp://8.15.251.100:1935/rtplive/R3_005","title":"I-24 west of Silliman Evans Bridge","id":"200"}},{"type":"Feature","geometry":{"type":"Point","coordinates":[-86.75939952,36.15349527]},"properties":{"httpVideoUrl":"http://8.15.251.100:1935/rtplive/R3_003/playlist.m3u8","thumbnailUrl":"http://www.tdot.state.tn.us/cctv/cctvnash/live/CCTV_003.jpg","rtmpVideoUrl":"rtmp://8.15.251.100:1935/rtplive/R3_003","rtspVideoUrl":"rtsp://8.15.251.100:1935/rtplive/R3_003","title":"I-40 west of Fesslers Ln","id":"201"}},{"type":"Feature","geometry":{"type":"Point","coordinates":[-86.76413096,36.16646449]},"properties":{"httpVideoUrl":"http://8.15.251.104:1935/rtplive/R3_045/playlist.m3u8","thumbnailUrl":"http://www.tdot.state.tn.us/cctv/cctvnash/live/CCTV_045.jpg","rtmpVideoUrl":"rtmp://8.15.251.104:1935/rtplive/R3_045","rtspVideoUrl":"rtsp://8.15.251.104:1935/rtplive/R3_045","title":"I-24 @ Shelby","id":"204"}},{"type":"Feature","geometry":{"type":"Point","coordinates":[-86.72682257,36.12624925]},"properties":{"httpVideoUrl":"http://8.15.251.100:1935/rtplive/R3_056/playlist.m3u8","thumbnailUrl":"http://www.tdot.state.tn.us/cctv/cctvnash/live/CCTV_056.jpg","rtmpVideoUrl":"rtmp://8.15.251.100:1935/rtplive/R3_056","rtspVideoUrl":"rtsp://8.15.251.100:1935/rtplive/R3_056","title":"I-24 @ I-440 Jct","id":"205"}},{"type":"Feature","geometry":{"type":"Point","coordinates":[-84.13222189,35.90861094]},"properties":{"httpVideoUrl":"http://8.15.251.104:1935/rtplive/R1_003/playlist.m3u8","thumbnailUrl":"http://www.tdot.state.tn.us/cctv/cctvknox/live/cam16003.jpg","rtmpVideoUrl":"rtmp://8.15.251.104:1935/rtplive/R1_003","rtspVideoUrl":"rtsp://8.15.251.104:1935/rtplive/R1_003","title":"I-40/75 @ Parkside Dr","id":"87"}},{"type":"Feature","geometry":{"type":"Point","coordinates":[-84.11472239,35.89277811]},"properties":{"httpVideoUrl":"http://8.15.251.100:1935/rtplive/R1_068/playlist.m3u8","thumbnailUrl":"http://www.tdot.state.tn.us/cctv/cctvknox/live/cam16068.jpg","rtmpVideoUrl":"rtmp://8.15.251.100:1935/rtplive/R1_068","rtspVideoUrl":"rtsp://8.15.251.100:1935/rtplive/R1_068","title":"I-140 @ Fox Rd","id":"88"}},{"type":"Feature","geometry":{"type":"Point","coordinates":[-84.12194428,35.91083283]},"properties":{"httpVideoUrl":"http://8.15.251.101:1935/rtplive/R1_070/playlist.m3u8","thumbnailUrl":"http://www.tdot.state.tn.us/cctv/cctvknox/live/cam16070.jpg","rtmpVideoUrl":"rtmp://8.15.251.101:1935/rtplive/R1_070","rtspVideoUrl":"rtsp://8.15.251.101:1935/rtplive/R1_070","title":"I-140 @ I-40/75","id":"89"}},{"type":"Feature","geometry":{"type":"Point","coordinates":[-84.10111145,35.91555623]},"properties":{"httpVideoUrl":"http://8.15.251.104:1935/rtplive/R1_005/playlist.m3u8","thumbnailUrl":"http://www.tdot.state.tn.us/cctv/cctvknox/live/cam16005.jpg","rtmpVideoUrl":"rtmp://8.15.251.104:1935/rtplive/R1_005","rtspVideoUrl":"rtsp://8.15.251.104:1935/rtplive/R1_005","title":"I-40/75 @ Park West","id":"93"}},{"type":"Feature","geometry":{"type":"Point","coordinates":[-84.14444377,35.93472239]},"properties":{"httpVideoUrl":"http://8.15.251.101:1935/rtplive/R1_073/playlist.m3u8","thumbnailUrl":"http://www.tdot.state.tn.us/cctv/cctvknox/live/cam16073.jpg","rtmpVideoUrl":"rtmp://8.15.251.101:1935/rtplive/R1_073","rtspVideoUrl":"rtsp://8.15.251.101:1935/rtplive/R1_073","title":"SR 162 @ Lovell Rd","id":"95"}},{"type":"Feature","geometry":{"type":"Point","coordinates":[-84.125,35.91833333]},"properties":{"httpVideoUrl":"http://8.15.251.101:1935/rtplive/R1_071/playlist.m3u8","thumbnailUrl":"http://www.tdot.state.tn.us/cctv/cctvknox/live/cam16071.jpg","rtmpVideoUrl":"rtmp://8.15.251.101:1935/rtplive/R1_071","rtspVideoUrl":"rtsp://8.15.251.101:1935/rtplive/R1_071","title":"SR 162 @ Mabry Hood Rd","id":"96"}},{"type":"Feature","geometry":{"type":"Point","coordinates":[-84.09027761,35.91805572]},"properties":{"httpVideoUrl":"http://8.15.251.104:1935/rtplive/R1_006/playlist.m3u8","thumbnailUrl":"http://www.tdot.state.tn.us/cctv/cctvknox/live/cam16006.jpg","rtmpVideoUrl":"rtmp://8.15.251.104:1935/rtplive/R1_006","rtspVideoUrl":"rtsp://8.15.251.104:1935/rtplive/R1_006","title":"I-40/75 @ Cedar Bluff Rd","id":"97"}},{"type":"Feature","geometry":{"type":"Point","coordinates":[-90.08641722,35.13528264]},"properties":{"httpVideoUrl":"http://8.15.251.103:1935/rtplive/R4_016/playlist.m3u8","thumbnailUrl":"http://www.tdot.state.tn.us/cctv/cctvmemp/live/cam160016.jpg","rtmpVideoUrl":"rtmp://8.15.251.103:1935/rtplive/R4_016","rtspVideoUrl":"rtsp://8.15.251.103:1935/rtplive/R4_016","title":"I-55 n/o MS River","id":"98"}},{"type":"Feature","geometry":{"type":"Point","coordinates":[-90.07880004,35.12986723]},"properties":{"httpVideoUrl":"http://8.15.251.103:1935/rtplive/R4_018/playlist.m3u8","thumbnailUrl":"http://www.tdot.state.tn.us/cctv/cctvmemp/live/cam160018.jpg","rtmpVideoUrl":"rtmp://8.15.251.103:1935/rtplive/R4_018","rtspVideoUrl":"rtsp://8.15.251.103:1935/rtplive/R4_018","title":"I55 on MS River bridge","id":"100"}},{"type":"Feature","geometry":{"type":"Point","coordinates":[-90.06678334,35.12459968]},"properties":{"httpVideoUrl":"http://8.15.251.104:1935/rtplive/R4_021/playlist.m3u8","thumbnailUrl":"http://www.tdot.state.tn.us/cctv/cctvmemp/live/cam160021.jpg","rtmpVideoUrl":"rtmp://8.15.251.104:1935/rtplive/R4_021","rtspVideoUrl":"rtsp://8.15.251.104:1935/rtplive/R4_021","title":"I-55 @ Crump Blvd/ Riverside","id":"102"}},{"type":"Feature","geometry":{"type":"Point","coordinates":[-90.07241702,35.11616677]},"properties":{"httpVideoUrl":"http://8.15.251.104:1935/rtplive/R4_022/playlist.m3u8","thumbnailUrl":"http://www.tdot.state.tn.us/cctv/cctvmemp/live/cam160022.jpg","rtmpVideoUrl":"rtmp://8.15.251.104:1935/rtplive/R4_022","rtspVideoUrl":"rtsp://8.15.251.104:1935/rtplive/R4_022","title":"I-55 @ McLemore","id":"103"}},{"type":"Feature","geometry":{"type":"Point","coordinates":[-90.07616677,35.09765037]},"properties":{"httpVideoUrl":"http://8.15.251.104:1935/rtplive/R4_024/playlist.m3u8","thumbnailUrl":"http://www.tdot.state.tn.us/cctv/cctvmemp/live/cam160024.jpg","rtmpVideoUrl":"rtmp://8.15.251.104:1935/rtplive/R4_024","rtspVideoUrl":"rtsp://8.15.251.104:1935/rtplive/R4_024","title":"I-55 n/o Mallory","id":"104"}},{"type":"Feature","geometry":{"type":"Point","coordinates":[-90.22581674,35.15996681]},"properties":{"httpVideoUrl":"http://8.15.251.104:1935/rtplive/R4_026/playlist.m3u8","thumbnailUrl":"http://www.tdot.state.tn.us/cctv/cctvmemp/live/cam160026.jpg","rtmpVideoUrl":"rtmp://8.15.251.104:1935/rtplive/R4_026","rtspVideoUrl":"rtsp://8.15.251.104:1935/rtplive/R4_026","title":"I-40 @ College Blvd","id":"106"}},{"type":"Feature","geometry":{"type":"Point","coordinates":[-90.19671696,35.18316737]},"properties":{"httpVideoUrl":"http://8.15.251.104:1935/rtplive/R4_029/playlist.m3u8","thumbnailUrl":"http://www.tdot.state.tn.us/cctv/cctvmemp/live/cam160029.jpg","rtmpVideoUrl":"rtmp://8.15.251.104:1935/rtplive/R4_029","rtspVideoUrl":"rtsp://8.15.251.104:1935/rtplive/R4_029","title":"I-55 s/o Marion Weigh Sta.","id":"108"}},{"type":"Feature","geometry":{"type":"Point","coordinates":[-90.20029974,35.19303259]},"properties":{"httpVideoUrl":"http://8.15.251.104:1935/rtplive/R4_030/playlist.m3u8","thumbnailUrl":"http://www.tdot.state.tn.us/cctv/cctvmemp/live/cam160030.jpg","rtmpVideoUrl":"rtmp://8.15.251.104:1935/rtplive/R4_030","rtspVideoUrl":"rtsp://8.15.251.104:1935/rtplive/R4_030","title":"I-55 @ Marion weigh station","id":"109"}},{"type":"Feature","geometry":{"type":"Point","coordinates":[-90.02271676,35.14988332]},"properties":{"httpVideoUrl":"http://8.15.251.100:1935/rtplive/R4_032/playlist.m3u8","thumbnailUrl":"http://www.tdot.state.tn.us/cctv/cctvmemp/live/cam160032.jpg","rtmpVideoUrl":"rtmp://8.15.251.100:1935/rtplive/R4_032","rtspVideoUrl":"rtsp://8.15.251.100:1935/rtplive/R4_032","title":"I-40/ 240 Midtown Jct.","id":"111"}},{"type":"Feature","geometry":{"type":"Point","coordinates":[-90.01983303,35.15795011]},"properties":{"httpVideoUrl":"http://8.15.251.100:1935/rtplive/R4_033/playlist.m3u8","thumbnailUrl":"http://www.tdot.state.tn.us/cctv/cctvmemp/live/cam160033.jpg","rtmpVideoUrl":"rtmp://8.15.251.100:1935/rtplive/R4_033","rtspVideoUrl":"rtsp://8.15.251.100:1935/rtplive/R4_033","title":"I-40 @ Jackson Ave. midtown","id":"112"}},{"type":"Feature","geometry":{"type":"Point","coordinates":[-90.01640012,35.19173305]},"properties":{"httpVideoUrl":"http://8.15.251.100:1935/rtplive/R4_036/playlist.m3u8","thumbnailUrl":"http://www.tdot.state.tn.us/cctv/cctvmemp/live/cam160036.jpg","rtmpVideoUrl":"rtmp://8.15.251.100:1935/rtplive/R4_036","rtspVideoUrl":"rtsp://8.15.251.100:1935/rtplive/R4_036","title":"I-40 @ 240/51 ramp (SR300)","id":"114"}},{"type":"Feature","geometry":{"type":"Point","coordinates":[-90.00753269,35.19158318]},"properties":{"httpVideoUrl":"http://8.15.251.100:1935/rtplive/R4_038/playlist.m3u8","thumbnailUrl":"http://www.tdot.state.tn.us/cctv/cctvmemp/live/cam160038.jpg","rtmpVideoUrl":"rtmp://8.15.251.100:1935/rtplive/R4_038","rtspVideoUrl":"rtsp://8.15.251.100:1935/rtplive/R4_038","title":"I-40 @ Watkins","id":"116"}},{"type":"Feature","geometry":{"type":"Point","coordinates":[-89.98846711,35.19219976]},"properties":{"httpVideoUrl":"http://8.15.251.100:1935/rtplive/R4_039/playlist.m3u8","thumbnailUrl":"http://www.tdot.state.tn.us/cctv/cctvmemp/live/cam160039.jpg","rtmpVideoUrl":"rtmp://8.15.251.100:1935/rtplive/R4_039","rtspVideoUrl":"rtsp://8.15.251.100:1935/rtplive/R4_039","title":"I-40 w/o Hollywood","id":"117"}},{"type":"Feature","geometry":{"type":"Point","coordinates":[-89.94273285,35.18991652]},"properties":{"httpVideoUrl":"http://8.15.251.101:1935/rtplive/R4_042/playlist.m3u8","thumbnailUrl":"http://www.tdot.state.tn.us/cctv/cctvmemp/live/cam160042.jpg","rtmpVideoUrl":"rtmp://8.15.251.101:1935/rtplive/R4_042","rtspVideoUrl":"rtsp://8.15.251.101:1935/rtplive/R4_042","title":"I-40 w/o SR 14, Austin Peay","id":"119"}},{"type":"Feature","geometry":{"type":"Point","coordinates":[-89.92669986,35.19296721]},"properties":{"httpVideoUrl":"http://8.15.251.101:1935/rtplive/R4_043/playlist.m3u8","thumbnailUrl":"http://www.tdot.state.tn.us/cctv/cctvmemp/live/cam160043.jpg","rtmpVideoUrl":"rtmp://8.15.251.101:1935/rtplive/R4_043","rtspVideoUrl":"rtsp://8.15.251.101:1935/rtplive/R4_043","title":"I-40 @ SR 14, Austin Peay","id":"120"}},{"type":"Feature","geometry":{"type":"Point","coordinates":[-90.14804969,35.15481694]},"properties":{"httpVideoUrl":"http://8.15.251.102:1935/rtplive/R4_003/playlist.m3u8","thumbnailUrl":"http://www.tdot.state.tn.us/cctv/cctvmemp/live/cam160003.jpg","rtmpVideoUrl":"rtmp://8.15.251.102:1935/rtplive/R4_003","rtspVideoUrl":"rtsp://8.15.251.102:1935/rtplive/R4_003","title":"I-40 @ I-40/I-55 Eastern Jct.","id":"242"}},{"type":"Feature","geometry":{"type":"Point","coordinates":[-90.12708308,35.15703279]},"properties":{"httpVideoUrl":"http://8.15.251.102:1935/rtplive/R4_005/playlist.m3u8","thumbnailUrl":"http://www.tdot.state.tn.us/cctv/cctvmemp/live/cam160005.jpg","rtmpVideoUrl":"rtmp://8.15.251.102:1935/rtplive/R4_005","rtspVideoUrl":"rtsp://8.15.251.102:1935/rtplive/R4_005","title":"I-40 @ Mound City Rd","id":"244"}},{"type":"Feature","geometry":{"type":"Point","coordinates":[-90.09773285,35.1525005]},"properties":{"httpVideoUrl":"http://8.15.251.102:1935/rtplive/R4_007/playlist.m3u8","thumbnailUrl":"http://www.tdot.state.tn.us/cctv/cctvmemp/live/cam160007.jpg","rtmpVideoUrl":"rtmp://8.15.251.102:1935/rtplive/R4_007","rtspVideoUrl":"rtsp://8.15.251.102:1935/rtplive/R4_007","title":"I-40 @ Weigh Station","id":"246"}},{"type":"Feature","geometry":{"type":"Point","coordinates":[-90.06514987,35.15304969]},"properties":{"httpVideoUrl":"http://8.15.251.102:1935/rtplive/R4_009/playlist.m3u8","thumbnailUrl":"http://www.tdot.state.tn.us/cctv/cctvmemp/live/cam160009.jpg","rtmpVideoUrl":"rtmp://8.15.251.102:1935/rtplive/R4_009","rtspVideoUrl":"rtsp://8.15.251.102:1935/rtplive/R4_009","title":"I-40 @ AR end MS. River bridge","id":"247"}},{"type":"Feature","geometry":{"type":"Point","coordinates":[-90.0514826,35.15330014]},"properties":{"httpVideoUrl":"http://8.15.251.103:1935/rtplive/R4_011/playlist.m3u8","thumbnailUrl":"http://www.tdot.state.tn.us/cctv/cctvmemp/live/cam160011.jpg","rtmpVideoUrl":"rtmp://8.15.251.103:1935/rtplive/R4_011","rtspVideoUrl":"rtsp://8.15.251.103:1935/rtplive/R4_011","title":"I-40 @ Riverside Dr.","id":"249"}},{"type":"Feature","geometry":{"type":"Point","coordinates":[-90.04203279,35.1514997]},"properties":{"httpVideoUrl":"http://8.15.251.103:1935/rtplive/R4_012/playlist.m3u8","thumbnailUrl":"http://www.tdot.state.tn.us/cctv/cctvmemp/live/cam160012.jpg","rtmpVideoUrl":"rtmp://8.15.251.103:1935/rtplive/R4_012","rtspVideoUrl":"rtsp://8.15.251.103:1935/rtplive/R4_012","title":"I-40  @ Danny Thomas Blvd","id":"250"}},{"type":"Feature","geometry":{"type":"Point","coordinates":[-86.81731543,36.1667421]},"properties":{"httpVideoUrl":"http://8.15.251.102:1935/rtplive/R3_030/playlist.m3u8","thumbnailUrl":"http://www.tdot.state.tn.us/cctv/cctvnash/live/CCTV_030.jpg","rtmpVideoUrl":"rtmp://8.15.251.102:1935/rtplive/R3_030","rtspVideoUrl":"rtsp://8.15.251.102:1935/rtplive/R3_030","title":"I-40 west of Jefferson St","id":"252"}},{"type":"Feature","geometry":{"type":"Point","coordinates":[-86.79311104,36.15915711]},"properties":{"httpVideoUrl":"http://8.15.251.102:1935/rtplive/R3_027/playlist.m3u8","thumbnailUrl":"http://www.tdot.state.tn.us/cctv/cctvnash/live/CCTV_027.jpg","rtmpVideoUrl":"rtmp://8.15.251.102:1935/rtplive/R3_027","rtspVideoUrl":"rtsp://8.15.251.102:1935/rtplive/R3_027","title":"I-40 west of Church St","id":"253"}},{"type":"Feature","geometry":{"type":"Point","coordinates":[-86.77412291,36.11460471]},"properties":{"httpVideoUrl":"http://8.15.251.100:1935/rtplive/R3_053/playlist.m3u8","thumbnailUrl":"http://www.tdot.state.tn.us/cctv/cctvnash/live/CCTV_053.jpg","rtmpVideoUrl":"rtmp://8.15.251.100:1935/rtplive/R3_053","rtspVideoUrl":"rtsp://8.15.251.100:1935/rtplive/R3_053","title":"I-65 @ I-440 Jct","id":"255"}},{"type":"Feature","geometry":{"type":"Point","coordinates":[-86.7519996,36.24160028]},"properties":{"httpVideoUrl":"http://8.15.251.101:1935/rtplive/R3_015/playlist.m3u8","thumbnailUrl":"http://www.tdot.state.tn.us/cctv/cctvnash/live/CCTV_015.jpg","rtmpVideoUrl":"rtmp://8.15.251.101:1935/rtplive/R3_015","rtspVideoUrl":"rtsp://8.15.251.101:1935/rtplive/R3_015","title":"I-65 @ Briley Pkwy","id":"256"}},{"type":"Feature","geometry":{"type":"Point","coordinates":[-86.76278013,36.24117984]},"properties":{"httpVideoUrl":"http://8.15.251.104:1935/rtplive/R3_044/playlist.m3u8","thumbnailUrl":"http://www.tdot.state.tn.us/cctv/cctvnash/live/CCTV_044.jpg","rtmpVideoUrl":"rtmp://8.15.251.104:1935/rtplive/R3_044","rtspVideoUrl":"rtsp://8.15.251.104:1935/rtplive/R3_044","title":"Briley Pkwy west of Dickerson Pk","id":"258"}},{"type":"Feature","geometry":{"type":"Point","coordinates":[-90.07831724,35.15295011]},"properties":{"httpVideoUrl":"http://8.15.251.102:1935/rtplive/R4_008/playlist.m3u8","thumbnailUrl":"http://www.tdot.state.tn.us/cctv/cctvmemp/live/cam160008.jpg","rtmpVideoUrl":"rtmp://8.15.251.102:1935/rtplive/R4_008","rtspVideoUrl":"rtsp://8.15.251.102:1935/rtplive/R4_008","title":"I-40 e/o Weigh Station","id":"311"}},{"type":"Feature","geometry":{"type":"Point","coordinates":[-90.01821666,35.17216657]},"properties":{"httpVideoUrl":"http://8.15.251.100:1935/rtplive/R4_034/playlist.m3u8","thumbnailUrl":"http://www.tdot.state.tn.us/cctv/cctvmemp/live/cam160034.jpg","rtmpVideoUrl":"rtmp://8.15.251.100:1935/rtplive/R4_034","rtspVideoUrl":"rtsp://8.15.251.100:1935/rtplive/R4_034","title":"I-40 @ Chelsea Ave.","id":"314"}},{"type":"Feature","geometry":{"type":"Point","coordinates":[-89.95618286,35.19025045]},"properties":{"httpVideoUrl":"http://8.15.251.101:1935/rtplive/R4_041/playlist.m3u8","thumbnailUrl":"http://www.tdot.state.tn.us/cctv/cctvmemp/live/cam160041.jpg","rtmpVideoUrl":"rtmp://8.15.251.101:1935/rtplive/R4_041","rtspVideoUrl":"rtsp://8.15.251.101:1935/rtplive/R4_041","title":"I-40 @ Warford","id":"315"}},{"type":"Feature","geometry":{"type":"Point","coordinates":[-90.03861698,35.07540032]},"properties":{"httpVideoUrl":"http://8.15.251.104:1935/rtplive/R4_072/playlist.m3u8","thumbnailUrl":"http://www.tdot.state.tn.us/cctv/cctvmemp/live/cam160072.jpg","rtmpVideoUrl":"rtmp://8.15.251.104:1935/rtplive/R4_072","rtspVideoUrl":"rtsp://8.15.251.104:1935/rtplive/R4_072","title":"I-55 n/o I-55/240 Jct","id":"318"}},{"type":"Feature","geometry":{"type":"Point","coordinates":[-85.24756689,35.16878294]},"properties":{"httpVideoUrl":"http://8.15.251.102:1935/rtplive/R2_068/playlist.m3u8","thumbnailUrl":"http://www.tdot.state.tn.us/cctv/cctvchatt/live/cam16168.jpg","rtmpVideoUrl":"rtmp://8.15.251.102:1935/rtplive/R2_068","rtspVideoUrl":"rtsp://8.15.251.102:1935/rtplive/R2_068","title":"SR-153 @ Pine Mar Drive","id":"319"}},{"type":"Feature","geometry":{"type":"Point","coordinates":[-83.78798,36.00327]},"properties":{"httpVideoUrl":"http://8.15.251.101:1935/rtplive/R1_087/playlist.m3u8","thumbnailUrl":"http://www.tdot.state.tn.us/cctv/cctvknox/live/cam16087.jpg","rtmpVideoUrl":"rtmp://8.15.251.101:1935/rtplive/R1_087","rtspVideoUrl":"rtsp://8.15.251.101:1935/rtplive/R1_087","title":"I-40 West of Strawplains Pk.","id":"321"}},{"type":"Feature","geometry":{"type":"Point","coordinates":[-86.6300171,36.15568296]},"properties":{"httpVideoUrl":"http://8.15.251.100:1935/rtplive/R3_110/playlist.m3u8","thumbnailUrl":"http://www.tdot.state.tn.us/cctv/cctvnash/live/CCTV_110.JPG","rtmpVideoUrl":"rtmp://8.15.251.100:1935/rtplive/R3_110","rtspVideoUrl":"rtsp://8.15.251.100:1935/rtplive/R3_110","title":"I-40 @ Stewarts Ferry Pk","id":"322"}},{"type":"Feature","geometry":{"type":"Point","coordinates":[-89.81328304,35.18523335]},"properties":{"httpVideoUrl":"http://8.15.251.102:1935/rtplive/R4_055/playlist.m3u8","thumbnailUrl":"http://www.tdot.state.tn.us/cctv/cctvmemp/live/cam160055.jpg","rtmpVideoUrl":"rtmp://8.15.251.102:1935/rtplive/R4_055","rtspVideoUrl":"rtsp://8.15.251.102:1935/rtplive/R4_055","title":"I-40  @ Appling Rd.","id":"323"}},{"type":"Feature","geometry":{"type":"Point","coordinates":[-90.07576645,35.12754979]},"properties":{"httpVideoUrl":"http://8.15.251.103:1935/rtplive/R4_019/playlist.m3u8","thumbnailUrl":"http://www.tdot.state.tn.us/cctv/cctvmemp/live/cam160019.jpg","rtmpVideoUrl":"rtmp://8.15.251.103:1935/rtplive/R4_019","rtspVideoUrl":"rtsp://8.15.251.103:1935/rtplive/R4_019","title":"I-55 MS. River Br. @ state line","id":"324"}},{"type":"Feature","geometry":{"type":"Point","coordinates":[-90.07690002,35.08683363]},"properties":{"httpVideoUrl":"http://8.15.251.103:1935/rtplive/R4_068/playlist.m3u8","thumbnailUrl":"http://www.tdot.state.tn.us/cctv/cctvmemp/live/cam160068.jpg","rtmpVideoUrl":"rtmp://8.15.251.103:1935/rtplive/R4_068","rtspVideoUrl":"rtsp://8.15.251.103:1935/rtplive/R4_068","title":"I-55 @ Mallory","id":"325"}},{"type":"Feature","geometry":{"type":"Point","coordinates":[-86.68541641,36.14283343]},"properties":{"httpVideoUrl":"http://8.15.251.100:1935/rtplive/R3_106/playlist.m3u8","thumbnailUrl":"http://www.tdot.state.tn.us/cctv/cctvnash/live/CCTV_106.JPG","rtmpVideoUrl":"rtmp://8.15.251.100:1935/rtplive/R3_106","rtspVideoUrl":"rtsp://8.15.251.100:1935/rtplive/R3_106","title":"I- 40 east of Briley Pkwy (Hermitage)","id":"326"}},{"type":"Feature","geometry":{"type":"Point","coordinates":[-86.69090022,36.14951619]},"properties":{"httpVideoUrl":"http://8.15.251.103:1935/rtplive/R3_134/playlist.m3u8","thumbnailUrl":"http://www.tdot.state.tn.us/cctv/cctvnash/live/CCTV_134.JPG","rtmpVideoUrl":"rtmp://8.15.251.103:1935/rtplive/R3_134","rtspVideoUrl":"rtsp://8.15.251.103:1935/rtplive/R3_134","title":"Briley Pkwy @ Elm Hill Pk","id":"327"}},{"type":"Feature","geometry":{"type":"Point","coordinates":[-90.02571716,35.12328304]},"properties":{"httpVideoUrl":"http://8.15.251.100:1935/rtplive/R4_085/playlist.m3u8","thumbnailUrl":"http://www.tdot.state.tn.us/cctv/cctvmemp/live/cam160085.jpg","rtmpVideoUrl":"rtmp://8.15.251.100:1935/rtplive/R4_085","rtspVideoUrl":"rtsp://8.15.251.100:1935/rtplive/R4_085","title":"I-240 s/o Lamar Ave.","id":"328"}},{"type":"Feature","geometry":{"type":"Point","coordinates":[-90.20664957,35.16583283]},"properties":{"httpVideoUrl":"http://8.15.251.104:1935/rtplive/R4_027/playlist.m3u8","thumbnailUrl":"http://www.tdot.state.tn.us/cctv/cctvmemp/live/cam160027.jpg","rtmpVideoUrl":"rtmp://8.15.251.104:1935/rtplive/R4_027","rtspVideoUrl":"rtsp://8.15.251.104:1935/rtplive/R4_027","title":"I-40 e/o College Blvd.","id":"329"}},{"type":"Feature","geometry":{"type":"Point","coordinates":[-89.8439831,35.06718266]},"properties":{"httpVideoUrl":"http://8.15.251.102:1935/rtplive/R4_109/playlist.m3u8","thumbnailUrl":"http://www.tdot.state.tn.us/cctv/cctvmemp/live/cam160109.jpg","rtmpVideoUrl":"rtmp://8.15.251.102:1935/rtplive/R4_109","rtspVideoUrl":"rtsp://8.15.251.102:1935/rtplive/R4_109","title":"SR 385 @ Kirby","id":"331"}},{"type":"Feature","geometry":{"type":"Point","coordinates":[-89.87710018,35.08339972]},"properties":{"httpVideoUrl":"http://8.15.251.102:1935/rtplive/R4_102/playlist.m3u8","thumbnailUrl":"http://www.tdot.state.tn.us/cctv/cctvmemp/live/cam160102.jpg","rtmpVideoUrl":"rtmp://8.15.251.102:1935/rtplive/R4_102","rtspVideoUrl":"rtsp://8.15.251.102:1935/rtplive/R4_102","title":"SR 385 @ I-240","id":"332"}},{"type":"Feature","geometry":{"type":"Point","coordinates":[-89.8704828,35.10345001]},"properties":{"httpVideoUrl":"http://8.15.251.102:1935/rtplive/R4_104/playlist.m3u8","thumbnailUrl":"http://www.tdot.state.tn.us/cctv/cctvmemp/live/cam160104.jpg","rtmpVideoUrl":"rtmp://8.15.251.102:1935/rtplive/R4_104","rtspVideoUrl":"rtsp://8.15.251.102:1935/rtplive/R4_104","title":"I-240 @ Poplar","id":"334"}},{"type":"Feature","geometry":{"type":"Point","coordinates":[-89.86725005,35.13079964]},"properties":{"httpVideoUrl":"http://8.15.251.102:1935/rtplive/R4_106/playlist.m3u8","thumbnailUrl":"http://www.tdot.state.tn.us/cctv/cctvmemp/live/cam160106.jpg","rtmpVideoUrl":"rtmp://8.15.251.102:1935/rtplive/R4_106","rtspVideoUrl":"rtsp://8.15.251.102:1935/rtplive/R4_106","title":"I-240 @ Walnut Grove","id":"336"}},{"type":"Feature","geometry":{"type":"Point","coordinates":[-89.87040032,35.1404999]},"properties":{"httpVideoUrl":"http://8.15.251.102:1935/rtplive/R4_107/playlist.m3u8","thumbnailUrl":"http://www.tdot.state.tn.us/cctv/cctvmemp/live/cam160107.jpg","rtmpVideoUrl":"rtmp://8.15.251.102:1935/rtplive/R4_107","rtspVideoUrl":"rtsp://8.15.251.102:1935/rtplive/R4_107","title":"I-240 e/o Walnut Grove","id":"337"}},{"type":"Feature","geometry":{"type":"Point","coordinates":[-89.83525045,35.05881714]},"properties":{"httpVideoUrl":"http://8.15.251.102:1935/rtplive/R4_110/playlist.m3u8","thumbnailUrl":"http://www.tdot.state.tn.us/cctv/cctvmemp/live/cam160110.jpg","rtmpVideoUrl":"rtmp://8.15.251.102:1935/rtplive/R4_110","rtspVideoUrl":"rtsp://8.15.251.102:1935/rtplive/R4_110","title":"SR 385 w/o Riverdale Rd.","id":"339"}},{"type":"Feature","geometry":{"type":"Point","coordinates":[-89.81029974,35.05232951]},"properties":{"httpVideoUrl":"http://8.15.251.103:1935/rtplive/R4_112/playlist.m3u8","thumbnailUrl":"http://www.tdot.state.tn.us/cctv/cctvmemp/live/cam160112.jpg","rtmpVideoUrl":"rtmp://8.15.251.103:1935/rtplive/R4_112","rtspVideoUrl":"rtsp://8.15.251.103:1935/rtplive/R4_112","title":"SR 385 @ Winchester","id":"341"}},{"type":"Feature","geometry":{"type":"Point","coordinates":[-89.79675015,35.03754979]},"properties":{"httpVideoUrl":"http://8.15.251.103:1935/rtplive/R4_114/playlist.m3u8","thumbnailUrl":"http://www.tdot.state.tn.us/cctv/cctvmemp/live/cam160114.jpg","rtmpVideoUrl":"rtmp://8.15.251.103:1935/rtplive/R4_114","rtspVideoUrl":"rtsp://8.15.251.103:1935/rtplive/R4_114","title":"SR 385 @ Hacks Cross Rd.","id":"343"}},{"type":"Feature","geometry":{"type":"Point","coordinates":[-86.73671092,36.26386542]},"properties":{"httpVideoUrl":"http://8.15.251.101:1935/rtplive/R3_017/playlist.m3u8","thumbnailUrl":"http://www.tdot.state.tn.us/cctv/cctvnash/live/CCTV_017.jpg","rtmpVideoUrl":"rtmp://8.15.251.101:1935/rtplive/R3_017","rtspVideoUrl":"rtsp://8.15.251.101:1935/rtplive/R3_017","title":"I-65 @ Old Hickory Blvd (Madison)","id":"259"}},{"type":"Feature","geometry":{"type":"Point","coordinates":[-86.70291792,36.30833836]},"properties":{"httpVideoUrl":"http://8.15.251.102:1935/rtplive/R3_021/playlist.m3u8","thumbnailUrl":"http://www.tdot.state.tn.us/cctv/cctvnash/live/CCTV_021.jpg","rtmpVideoUrl":"rtmp://8.15.251.102:1935/rtplive/R3_021","rtspVideoUrl":"rtsp://8.15.251.102:1935/rtplive/R3_021","title":"I-65 @ Rivergate Pkwy","id":"262"}},{"type":"Feature","geometry":{"type":"Point","coordinates":[-86.68451921,36.3116375]},"properties":{"httpVideoUrl":"http://8.15.251.104:1935/rtplive/R3_049/playlist.m3u8","thumbnailUrl":"http://www.tdot.state.tn.us/cctv/cctvnash/live/CCTV_049.jpg","rtmpVideoUrl":"rtmp://8.15.251.104:1935/rtplive/R3_049","rtspVideoUrl":"rtsp://8.15.251.104:1935/rtplive/R3_049","title":"Vietnam Veterans Blvd e/o Conference Dr","id":"263"}},{"type":"Feature","geometry":{"type":"Point","coordinates":[-86.70207202,36.31698552]},"properties":{"httpVideoUrl":"http://8.15.251.102:1935/rtplive/R3_022/playlist.m3u8","thumbnailUrl":"http://www.tdot.state.tn.us/cctv/cctvnash/live/CCTV_022.jpg","rtmpVideoUrl":"rtmp://8.15.251.102:1935/rtplive/R3_022","rtspVideoUrl":"rtsp://8.15.251.102:1935/rtplive/R3_022","title":"I-65 south of Long Hollow Pk","id":"264"}},{"type":"Feature","geometry":{"type":"Point","coordinates":[-86.7782076,36.14757091]},"properties":{"httpVideoUrl":"http://8.15.251.102:1935/rtplive/R3_025/playlist.m3u8","thumbnailUrl":"http://www.tdot.state.tn.us/cctv/cctvnash/live/CCTV_025.jpg","rtmpVideoUrl":"rtmp://8.15.251.102:1935/rtplive/R3_025","rtspVideoUrl":"rtsp://8.15.251.102:1935/rtplive/R3_025","title":"I-65 @ I-40 South Loop","id":"265"}},{"type":"Feature","geometry":{"type":"Point","coordinates":[-86.76892376,36.15021223]},"properties":{"httpVideoUrl":"http://8.15.251.102:1935/rtplive/R3_024/playlist.m3u8","thumbnailUrl":"http://www.tdot.state.tn.us/cctv/cctvnash/live/CCTV_024.jpg","rtmpVideoUrl":"rtmp://8.15.251.102:1935/rtplive/R3_024","rtspVideoUrl":"rtsp://8.15.251.102:1935/rtplive/R3_024","title":"I-40 west of 2nd/4th Ave","id":"267"}},{"type":"Feature","geometry":{"type":"Point","coordinates":[-90.02406659,35.06370046]},"properties":{"httpVideoUrl":"http://8.15.251.104:1935/rtplive/R4_075/playlist.m3u8","thumbnailUrl":"http://www.tdot.state.tn.us/cctv/cctvmemp/live/cam160075.jpg","rtmpVideoUrl":"rtmp://8.15.251.104:1935/rtplive/R4_075","rtspVideoUrl":"rtsp://8.15.251.104:1935/rtplive/R4_075","title":"I-55 @ Brooks/ US 51","id":"269"}},{"type":"Feature","geometry":{"type":"Point","coordinates":[-84.03916717,35.92888855]},"properties":{"httpVideoUrl":"http://8.15.251.100:1935/rtplive/R1_010/playlist.m3u8","thumbnailUrl":"http://www.tdot.state.tn.us/cctv/cctvknox/live/cam16010.jpg","rtmpVideoUrl":"rtmp://8.15.251.100:1935/rtplive/R1_010","rtspVideoUrl":"rtsp://8.15.251.100:1935/rtplive/R1_010","title":"I-40/75 @ West Hills","id":"272"}},{"type":"Feature","geometry":{"type":"Point","coordinates":[-83.97416717,35.96222189]},"properties":{"httpVideoUrl":"http://8.15.251.102:1935/rtplive/R1_033/playlist.m3u8","thumbnailUrl":"http://www.tdot.state.tn.us/cctv/cctvknox/live/cam16033.jpg","rtmpVideoUrl":"rtmp://8.15.251.102:1935/rtplive/R1_033","rtspVideoUrl":"rtsp://8.15.251.102:1935/rtplive/R1_033","title":"I-75/640 North of I-40/75","id":"273"}},{"type":"Feature","geometry":{"type":"Point","coordinates":[-84.68443975,35.88527962]},"properties":{"httpVideoUrl":"http://8.15.251.101:1935/rtplive/R1_101/playlist.m3u8","thumbnailUrl":"http://www.tdot.state.tn.us/cctv/cctvknox/live/cam16101.jpg","rtmpVideoUrl":"rtmp://8.15.251.101:1935/rtplive/R1_101","rtspVideoUrl":"rtsp://8.15.251.101:1935/rtplive/R1_101","title":"Rockwood Mountain: I-40 East at Mile Marker 341.6","id":"275"}},{"type":"Feature","geometry":{"type":"Point","coordinates":[-86.76955743,36.17385637]},"properties":{"httpVideoUrl":"http://8.15.251.100:1935/rtplive/R3_007/playlist.m3u8","thumbnailUrl":"http://www.tdot.state.tn.us/cctv/cctvnash/live/CCTV_007.jpg","rtmpVideoUrl":"rtmp://8.15.251.100:1935/rtplive/R3_007","rtspVideoUrl":"rtsp://8.15.251.100:1935/rtplive/R3_007","title":"I-24 west of Ellington Pkwy","id":"276"}},{"type":"Feature","geometry":{"type":"Point","coordinates":[-86.75870549,36.23775297]},"properties":{"httpVideoUrl":"http://8.15.251.101:1935/rtplive/R3_014/playlist.m3u8","thumbnailUrl":"http://www.tdot.state.tn.us/cctv/cctvnash/live/CCTV_014.jpg","rtmpVideoUrl":"rtmp://8.15.251.101:1935/rtplive/R3_014","rtspVideoUrl":"rtsp://8.15.251.101:1935/rtplive/R3_014","title":"I-65 @ Dickerson Pk","id":"278"}},{"type":"Feature","geometry":{"type":"Point","coordinates":[-86.70698552,36.30343895]},"properties":{"httpVideoUrl":"http://8.15.251.101:1935/rtplive/R3_020/playlist.m3u8","thumbnailUrl":"http://www.tdot.state.tn.us/cctv/cctvnash/live/CCTV_020.jpg","rtmpVideoUrl":"rtmp://8.15.251.101:1935/rtplive/R3_020","rtspVideoUrl":"rtsp://8.15.251.101:1935/rtplive/R3_020","title":"I-65 @ Vietnam Vets Blvd","id":"279"}},{"type":"Feature","geometry":{"type":"Point","coordinates":[-86.56839972,36.16894991]},"properties":{"httpVideoUrl":"http://8.15.251.101:1935/rtplive/R3_115/playlist.m3u8","thumbnailUrl":"http://www.tdot.state.tn.us/cctv/cctvnash/live/CCTV_115.JPG","rtmpVideoUrl":"rtmp://8.15.251.101:1935/rtplive/R3_115","rtspVideoUrl":"rtsp://8.15.251.101:1935/rtplive/R3_115","title":"I-40 @ Wilson County Line","id":"280"}},{"type":"Feature","geometry":{"type":"Point","coordinates":[-86.60171696,36.170517]},"properties":{"httpVideoUrl":"http://8.15.251.101:1935/rtplive/R3_113/playlist.m3u8","thumbnailUrl":"http://www.tdot.state.tn.us/cctv/cctvnash/live/CCTV_113.JPG","rtmpVideoUrl":"rtmp://8.15.251.101:1935/rtplive/R3_113","rtspVideoUrl":"rtsp://8.15.251.101:1935/rtplive/R3_113","title":"I-40 @ Old Hickory Blvd (Hermitage)","id":"281"}},{"type":"Feature","geometry":{"type":"Point","coordinates":[-86.70145745,36.0862935]},"properties":{"httpVideoUrl":"http://8.15.251.100:1935/rtplive/R3_055/playlist.m3u8","thumbnailUrl":"http://www.tdot.state.tn.us/cctv/cctvnash/live/CCTV_055.jpg","rtmpVideoUrl":"rtmp://8.15.251.100:1935/rtplive/R3_055","rtspVideoUrl":"rtsp://8.15.251.100:1935/rtplive/R3_055","title":"I-24 @ Harding Pl","id":"283"}},{"type":"Feature","geometry":{"type":"Point","coordinates":[-86.7631382,36.12185174]},"properties":{"httpVideoUrl":"http://8.15.251.102:1935/rtplive/R3_071/playlist.m3u8","thumbnailUrl":"http://www.tdot.state.tn.us/cctv/cctvnash/live/CCTV_071.jpg","rtmpVideoUrl":"rtmp://8.15.251.102:1935/rtplive/R3_071","rtspVideoUrl":"rtsp://8.15.251.102:1935/rtplive/R3_071","title":"I-440 east of I-65","id":"286"}},{"type":"Feature","geometry":{"type":"Point","coordinates":[-86.71037417,36.09916717]},"properties":{"httpVideoUrl":"http://8.15.251.103:1935/rtplive/R3_089/playlist.m3u8","thumbnailUrl":"http://www.tdot.state.tn.us/cctv/cctvnash/live/CCTV_089.JPG","rtmpVideoUrl":"rtmp://8.15.251.103:1935/rtplive/R3_089","rtspVideoUrl":"rtsp://8.15.251.103:1935/rtplive/R3_089","title":"I-24 west of Harding Pl","id":"288"}},{"type":"Feature","geometry":{"type":"Point","coordinates":[-90.02939952,35.11009958]},"properties":{"httpVideoUrl":"http://8.15.251.100:1935/rtplive/R4_087/playlist.m3u8","thumbnailUrl":"http://www.tdot.state.tn.us/cctv/cctvmemp/live/cam160087.jpg","rtmpVideoUrl":"rtmp://8.15.251.100:1935/rtplive/R4_087","rtspVideoUrl":"rtsp://8.15.251.100:1935/rtplive/R4_087","title":"I-240 @ South Parkway","id":"289"}},{"type":"Feature","geometry":{"type":"Point","coordinates":[-86.69389962,36.17634983]},"properties":{"httpVideoUrl":"http://8.15.251.103:1935/rtplive/R3_137/playlist.m3u8","thumbnailUrl":"http://www.tdot.state.tn.us/cctv/cctvnash/live/CCTV_137.JPG","rtmpVideoUrl":"rtmp://8.15.251.103:1935/rtplive/R3_137","rtspVideoUrl":"rtsp://8.15.251.103:1935/rtplive/R3_137","title":"Briley Pkwy north of Lebanon Pk","id":"291"}},{"type":"Feature","geometry":{"type":"Point","coordinates":[-86.68791692,36.18938342]},"properties":{"httpVideoUrl":"http://8.15.251.103:1935/rtplive/R3_139/playlist.m3u8","thumbnailUrl":"http://www.tdot.state.tn.us/cctv/cctvnash/live/CCTV_139.JPG","rtmpVideoUrl":"rtmp://8.15.251.103:1935/rtplive/R3_139","rtspVideoUrl":"rtsp://8.15.251.103:1935/rtplive/R3_139","title":"Briley Pkwy @ Two Rivers Pkwy","id":"292"}},{"type":"Feature","geometry":{"type":"Point","coordinates":[-86.69213337,36.21715047]},"properties":{"httpVideoUrl":"http://8.15.251.104:1935/rtplive/R3_141/playlist.m3u8","thumbnailUrl":"http://www.tdot.state.tn.us/cctv/cctvnash/live/CCTV_141.JPG","rtmpVideoUrl":"rtmp://8.15.251.104:1935/rtplive/R3_141","rtspVideoUrl":"rtsp://8.15.251.104:1935/rtplive/R3_141","title":"Briley Pkwy @ McGavock Pk","id":"293"}},{"type":"Feature","geometry":{"type":"Point","coordinates":[-86.79493362,36.23695031]},"properties":{"httpVideoUrl":"http://8.15.251.103:1935/rtplive/R3_133/playlist.m3u8","thumbnailUrl":"http://www.tdot.state.tn.us/cctv/cctvnash/live/CCTV_133.JPG","rtmpVideoUrl":"rtmp://8.15.251.103:1935/rtplive/R3_133","rtspVideoUrl":"rtsp://8.15.251.103:1935/rtplive/R3_133","title":"Briley Pkwy west of I-24","id":"295"}},{"type":"Feature","geometry":{"type":"Point","coordinates":[-86.82928284,36.23005029]},"properties":{"httpVideoUrl":"http://8.15.251.102:1935/rtplive/R3_130/playlist.m3u8","thumbnailUrl":"http://www.tdot.state.tn.us/cctv/cctvnash/live/CCTV_130.JPG","rtmpVideoUrl":"rtmp://8.15.251.102:1935/rtplive/R3_130","rtspVideoUrl":"rtsp://8.15.251.102:1935/rtplive/R3_130","title":"Briley Pkwy east of Clarksville Pk","id":"297"}},{"type":"Feature","geometry":{"type":"Point","coordinates":[-86.86741702,36.1979833]},"properties":{"httpVideoUrl":"http://8.15.251.102:1935/rtplive/R3_124/playlist.m3u8","thumbnailUrl":"http://www.tdot.state.tn.us/cctv/cctvnash/live/CCTV_124.JPG","rtmpVideoUrl":"rtmp://8.15.251.102:1935/rtplive/R3_124","rtspVideoUrl":"rtsp://8.15.251.102:1935/rtplive/R3_124","title":"Briley Pkwy south of Ashland City Hwy","id":"299"}},{"type":"Feature","geometry":{"type":"Point","coordinates":[-86.87060048,36.17833333]},"properties":{"httpVideoUrl":"http://8.15.251.102:1935/rtplive/R3_122/playlist.m3u8","thumbnailUrl":"http://www.tdot.state.tn.us/cctv/cctvnash/live/CCTV_122.JPG","rtmpVideoUrl":"rtmp://8.15.251.102:1935/rtplive/R3_122","rtspVideoUrl":"rtsp://8.15.251.102:1935/rtplive/R3_122","title":"Briley Pkwy north of Centennial Blvd","id":"300"}},{"type":"Feature","geometry":{"type":"Point","coordinates":[-86.90216657,36.12684973]},"properties":{"httpVideoUrl":"http://8.15.251.100:1935/rtplive/R3_101/playlist.m3u8","thumbnailUrl":"http://www.tdot.state.tn.us/cctv/cctvnash/live/CCTV_101.JPG","rtmpVideoUrl":"rtmp://8.15.251.100:1935/rtplive/R3_101","rtspVideoUrl":"rtsp://8.15.251.100:1935/rtplive/R3_101","title":"I- 40 west of Charlotte Pk","id":"302"}},{"type":"Feature","geometry":{"type":"Point","coordinates":[-86.92823376,36.1075005]},"properties":{"httpVideoUrl":"http://8.15.251.104:1935/rtplive/R3_099/playlist.m3u8","thumbnailUrl":"http://www.tdot.state.tn.us/cctv/cctvnash/live/CCTV_099.JPG","rtmpVideoUrl":"rtmp://8.15.251.104:1935/rtplive/R3_099","rtspVideoUrl":"rtsp://8.15.251.104:1935/rtplive/R3_099","title":"I-40 west of Old Hickory Blvd (Bellevue)","id":"303"}},{"type":"Feature","geometry":{"type":"Point","coordinates":[-89.86091732,35.16523335]},"properties":{"httpVideoUrl":"http://8.15.251.102:1935/rtplive/R4_051/playlist.m3u8","thumbnailUrl":"http://www.tdot.state.tn.us/cctv/cctvmemp/live/cam160051.jpg","rtmpVideoUrl":"rtmp://8.15.251.102:1935/rtplive/R4_051","rtspVideoUrl":"rtsp://8.15.251.102:1935/rtplive/R4_051","title":"I-40 @ Sycamore View","id":"306"}},{"type":"Feature","geometry":{"type":"Point","coordinates":[-89.84833333,35.17006739]},"properties":{"httpVideoUrl":"http://8.15.251.102:1935/rtplive/R4_052/playlist.m3u8","thumbnailUrl":"http://www.tdot.state.tn.us/cctv/cctvmemp/live/cam160052.jpg","rtmpVideoUrl":"rtmp://8.15.251.102:1935/rtplive/R4_052","rtspVideoUrl":"rtsp://8.15.251.102:1935/rtplive/R4_052","title":"I-40 e/o Sycamore View","id":"307"}},{"type":"Feature","geometry":{"type":"Point","coordinates":[-89.95641722,35.08070006]},"properties":{"httpVideoUrl":"http://8.15.251.101:1935/rtplive/R4_094/playlist.m3u8","thumbnailUrl":"http://www.tdot.state.tn.us/cctv/cctvmemp/live/cam160094.jpg","rtmpVideoUrl":"rtmp://8.15.251.101:1935/rtplive/R4_094","rtspVideoUrl":"rtsp://8.15.251.101:1935/rtplive/R4_094","title":"I-240 @ US 78, Lamar","id":"309"}},{"type":"Feature","geometry":{"type":"Point","coordinates":[-86.80537819,36.12303158]},"properties":{"httpVideoUrl":"http://8.15.251.101:1935/rtplive/R3_067/playlist.m3u8","thumbnailUrl":"http://www.tdot.state.tn.us/cctv/cctvnash/live/CCTV_067.jpg","rtmpVideoUrl":"rtmp://8.15.251.101:1935/rtplive/R3_067","rtspVideoUrl":"rtsp://8.15.251.101:1935/rtplive/R3_067","title":"I-440 @ 21st Ave","id":"225"}},{"type":"Feature","geometry":{"type":"Point","coordinates":[-86.79836451,36.11595454]},"properties":{"httpVideoUrl":"http://8.15.251.101:1935/rtplive/R3_068/playlist.m3u8","thumbnailUrl":"http://www.tdot.state.tn.us/cctv/cctvnash/live/CCTV_068.jpg","rtmpVideoUrl":"rtmp://8.15.251.101:1935/rtplive/R3_068","rtspVideoUrl":"rtsp://8.15.251.101:1935/rtplive/R3_068","title":"I-440 @ Belmont Overpass","id":"226"}},{"type":"Feature","geometry":{"type":"Point","coordinates":[-86.77427077,36.1152585]},"properties":{"httpVideoUrl":"http://8.15.251.101:1935/rtplive/R3_070/playlist.m3u8","thumbnailUrl":"http://www.tdot.state.tn.us/cctv/cctvnash/live/CCTV_070.jpg","rtmpVideoUrl":"rtmp://8.15.251.101:1935/rtplive/R3_070","rtspVideoUrl":"rtsp://8.15.251.101:1935/rtplive/R3_070","title":"I-440 @ I-65 Jct","id":"228"}},{"type":"Feature","geometry":{"type":"Point","coordinates":[-86.740517,36.12415812]},"properties":{"httpVideoUrl":"http://8.15.251.102:1935/rtplive/R3_073/playlist.m3u8","thumbnailUrl":"http://www.tdot.state.tn.us/cctv/cctvnash/live/CCTV_073.jpg","rtmpVideoUrl":"rtmp://8.15.251.102:1935/rtplive/R3_073","rtspVideoUrl":"rtsp://8.15.251.102:1935/rtplive/R3_073","title":"I-440 west of I-24","id":"230"}},{"type":"Feature","geometry":{"type":"Point","coordinates":[-86.83903138,36.15373466]},"properties":{"httpVideoUrl":"http://8.15.251.102:1935/rtplive/R3_074/playlist.m3u8","thumbnailUrl":"http://www.tdot.state.tn.us/cctv/cctvnash/live/CCTV_074.jpg","rtmpVideoUrl":"rtmp://8.15.251.102:1935/rtplive/R3_074","rtspVideoUrl":"rtsp://8.15.251.102:1935/rtplive/R3_074","title":"I-40 @ 46th Ave","id":"231"}},{"type":"Feature","geometry":{"type":"Point","coordinates":[-86.76458258,36.10190304]},"properties":{"httpVideoUrl":"http://8.15.251.102:1935/rtplive/R3_077/playlist.m3u8","thumbnailUrl":"http://www.tdot.state.tn.us/cctv/cctvnash/live/CCTV_077.jpg","rtmpVideoUrl":"rtmp://8.15.251.102:1935/rtplive/R3_077","rtspVideoUrl":"rtsp://8.15.251.102:1935/rtplive/R3_077","title":"I-65 @ Armory Dr","id":"233"}},{"type":"Feature","geometry":{"type":"Point","coordinates":[-86.77230839,36.12622511]},"properties":{"httpVideoUrl":"http://8.15.251.102:1935/rtplive/R3_078/playlist.m3u8","thumbnailUrl":"http://www.tdot.state.tn.us/cctv/cctvnash/live/CCTV_078.jpg","rtmpVideoUrl":"rtmp://8.15.251.102:1935/rtplive/R3_078","rtspVideoUrl":"rtsp://8.15.251.102:1935/rtplive/R3_078","title":"I-65 @ Craighead","id":"234"}},{"type":"Feature","geometry":{"type":"Point","coordinates":[-86.73181955,36.14042748]},"properties":{"httpVideoUrl":"http://8.15.251.102:1935/rtplive/R3_080/playlist.m3u8","thumbnailUrl":"http://www.tdot.state.tn.us/cctv/cctvnash/live/CCTV_080.JPG","rtmpVideoUrl":"rtmp://8.15.251.102:1935/rtplive/R3_080","rtspVideoUrl":"rtsp://8.15.251.102:1935/rtplive/R3_080","title":"I-40 @ Arlington Overpass","id":"236"}},{"type":"Feature","geometry":{"type":"Point","coordinates":[-86.67008851,36.05213337]},"properties":{"httpVideoUrl":"http://8.15.251.104:1935/rtplive/R3_093/playlist.m3u8","thumbnailUrl":"http://www.tdot.state.tn.us/cctv/cctvnash/live/CCTV_093.JPG","rtmpVideoUrl":"rtmp://8.15.251.104:1935/rtplive/R3_093","rtspVideoUrl":"rtsp://8.15.251.104:1935/rtplive/R3_093","title":"I-24 west of Bell Rd","id":"238"}},{"type":"Feature","geometry":{"type":"Point","coordinates":[-86.7900171,36.00478375]},"properties":{"httpVideoUrl":"http://8.15.251.103:1935/rtplive/R3_082/playlist.m3u8","thumbnailUrl":"http://www.tdot.state.tn.us/cctv/cctvnash/live/CCTV_082.JPG","rtmpVideoUrl":"rtmp://8.15.251.103:1935/rtplive/R3_082","rtspVideoUrl":"rtsp://8.15.251.103:1935/rtplive/R3_082","title":" I-65 north of Concord Rd","id":"240"}},{"type":"Feature","geometry":{"type":"Point","coordinates":[-90.15668276,35.15753269]},"properties":{"httpVideoUrl":"http://8.15.251.102:1935/rtplive/R4_002/playlist.m3u8","thumbnailUrl":"http://www.tdot.state.tn.us/cctv/cctvmemp/live/cam160002.jpg","rtmpVideoUrl":"rtmp://8.15.251.102:1935/rtplive/R4_002","rtspVideoUrl":"rtsp://8.15.251.102:1935/rtplive/R4_002","title":"I-40 /I-55 @ Ingram Blvd.","id":"241"}},{"type":"Feature","geometry":{"type":"Point","coordinates":[-90.07646651,35.1020167]},"properties":{"httpVideoUrl":"http://8.15.251.103:1935/rtplive/R4_067/playlist.m3u8","thumbnailUrl":"http://www.tdot.state.tn.us/cctv/cctvmemp/live/cam160067.jpg","rtmpVideoUrl":"rtmp://8.15.251.103:1935/rtplive/R4_067","rtspVideoUrl":"rtsp://8.15.251.103:1935/rtplive/R4_067","title":"I-55 s/o South Pkwy.","id":"413"}},{"type":"Feature","geometry":{"type":"Point","coordinates":[-90.0690002,35.07959968]},"properties":{"httpVideoUrl":"http://8.15.251.103:1935/rtplive/R4_069/playlist.m3u8","thumbnailUrl":"http://www.tdot.state.tn.us/cctv/cctvmemp/images/Camunavailable.jpg","rtmpVideoUrl":"rtmp://8.15.251.103:1935/rtplive/R4_069","rtspVideoUrl":"rtsp://8.15.251.103:1935/rtplive/R4_069","title":"I-55 s/o Mallory","id":"414"}},{"type":"Feature","geometry":{"type":"Point","coordinates":[-90.05108328,35.07826695]},"properties":{"httpVideoUrl":"http://8.15.251.104:1935/rtplive/R4_071/playlist.m3u8","thumbnailUrl":"http://www.tdot.state.tn.us/cctv/cctvmemp/live/cam160071.jpg","rtmpVideoUrl":"rtmp://8.15.251.104:1935/rtplive/R4_071","rtspVideoUrl":"rtsp://8.15.251.104:1935/rtplive/R4_071","title":"I-55 South of US 61, 3rd St.","id":"416"}},{"type":"Feature","geometry":{"type":"Point","coordinates":[-90.02781734,35.07263327]},"properties":{"httpVideoUrl":"http://8.15.251.104:1935/rtplive/R4_073/playlist.m3u8","thumbnailUrl":"http://www.tdot.state.tn.us/cctv/cctvmemp/live/cam160073.jpg","rtmpVideoUrl":"rtmp://8.15.251.104:1935/rtplive/R4_073","rtspVideoUrl":"rtsp://8.15.251.104:1935/rtplive/R4_073","title":"I-55 SB. @ I-55/240","id":"417"}},{"type":"Feature","geometry":{"type":"Point","coordinates":[-84.25868,35.860055]},"properties":{"httpVideoUrl":"http://8.15.251.101:1935/rtplive/R1_093/playlist.m3u8","thumbnailUrl":"http://www.tdot.state.tn.us/cctv/cctvknox/live/cam16093.jpg","rtmpVideoUrl":"rtmp://8.15.251.101:1935/rtplive/R1_093","rtspVideoUrl":"rtsp://8.15.251.101:1935/rtplive/R1_093","title":"I-75 @ 83.9 Mile Marker","id":"418"}},{"type":"Feature","geometry":{"type":"Point","coordinates":[-84.275763,35.87061]},"properties":{"httpVideoUrl":"http://8.15.251.101:1935/rtplive/R1_079/playlist.m3u8","thumbnailUrl":"http://www.tdot.state.tn.us/cctv/cctvknox/live/cam16079.jpg","rtmpVideoUrl":"rtmp://8.15.251.101:1935/rtplive/R1_079","rtspVideoUrl":"rtsp://8.15.251.101:1935/rtplive/R1_079","title":"I-40 @ 366.8 Mile Marker","id":"420"}},{"type":"Feature","geometry":{"type":"Point","coordinates":[-84.237554,35.878366]},"properties":{"httpVideoUrl":"http://8.15.251.101:1935/rtplive/R1_082/playlist.m3u8","thumbnailUrl":"http://www.tdot.state.tn.us/cctv/cctvknox/live/cam16082.jpg","rtmpVideoUrl":"rtmp://8.15.251.101:1935/rtplive/R1_082","rtspVideoUrl":"rtsp://8.15.251.101:1935/rtplive/R1_082","title":"I-40 @ 369.2 Mile Marker","id":"421"}},{"type":"Feature","geometry":{"type":"Point","coordinates":[-83.970519,35.836344]},"properties":{"httpVideoUrl":"http://8.15.251.102:1935/rtplive/R1_207/playlist.m3u8","thumbnailUrl":"http://www.tdot.state.tn.us/cctv/cctvknox/live/cam16207.jpg","rtmpVideoUrl":"rtmp://8.15.251.102:1935/rtplive/R1_207","rtspVideoUrl":"rtsp://8.15.251.102:1935/rtplive/R1_207","title":"SR-115 @ 17.7 Mile Marker","id":"423"}},{"type":"Feature","geometry":{"type":"Point","coordinates":[-83.959989,35.856708]},"properties":{"httpVideoUrl":"http://8.15.251.102:1935/rtplive/R1_209/playlist.m3u8","thumbnailUrl":"http://www.tdot.state.tn.us/cctv/cctvknox/live/cam16209.jpg","rtmpVideoUrl":"rtmp://8.15.251.102:1935/rtplive/R1_209","rtspVideoUrl":"rtsp://8.15.251.102:1935/rtplive/R1_209","title":"SR-115 @ 19.2 Mile Marker","id":"425"}},{"type":"Feature","geometry":{"type":"Point","coordinates":[-83.633666,35.983706]},"properties":{"httpVideoUrl":"http://8.15.251.102:1935/rtplive/R1_211/playlist.m3u8","thumbnailUrl":"http://www.tdot.state.tn.us/cctv/cctvknox/live/cam16211.jpg","rtmpVideoUrl":"rtmp://8.15.251.102:1935/rtplive/R1_211","rtspVideoUrl":"rtsp://8.15.251.102:1935/rtplive/R1_211","title":"I-40 @ 406.0 Mile Marker","id":"427"}},{"type":"Feature","geometry":{"type":"Point","coordinates":[-83.582247,35.986777]},"properties":{"httpVideoUrl":"http://8.15.251.103:1935/rtplive/R1_213/playlist.m3u8","thumbnailUrl":"http://www.tdot.state.tn.us/cctv/cctvknox/live/cam16213.jpg","rtmpVideoUrl":"rtmp://8.15.251.103:1935/rtplive/R1_213","rtspVideoUrl":"rtsp://8.15.251.103:1935/rtplive/R1_213","title":"I-40 @ 408.9 Mile Marker","id":"429"}},{"type":"Feature","geometry":{"type":"Point","coordinates":[-84.866314,35.212185]},"properties":{"httpVideoUrl":"http://8.15.251.104:1935/rtplive/R2_081/playlist.m3u8","thumbnailUrl":"http://www.tdot.state.tn.us/cctv/cctvchatt/live/cam16003.jpg","rtmpVideoUrl":"rtmp://8.15.251.104:1935/rtplive/R2_081","rtspVideoUrl":"rtsp://8.15.251.104:1935/rtplive/R2_081","title":"I-75 @ PAUL HUFF PKWY","id":"795"}},{"type":"Feature","geometry":{"type":"Point","coordinates":[-84.870725,35.206743]},"properties":{"httpVideoUrl":"http://8.15.251.103:1935/rtplive/R2_080/playlist.m3u8","thumbnailUrl":"http://www.tdot.state.tn.us/cctv/cctvchatt/live/cam16002.jpg","rtmpVideoUrl":"rtmp://8.15.251.103:1935/rtplive/R2_080","rtspVideoUrl":"rtsp://8.15.251.103:1935/rtplive/R2_080","title":"I-75 South OF PAUL HUFF ","id":"794"}},{"type":"Feature","geometry":{"type":"Point","coordinates":[-85.40328304,34.98854959]},"properties":{"httpVideoUrl":"http://8.15.251.101:1935/rtplive/R2_001/playlist.m3u8","thumbnailUrl":"http://www.tdot.state.tn.us/cctv/cctvchatt/live/cam16101.jpg","rtmpVideoUrl":"rtmp://8.15.251.101:1935/rtplive/R2_001","rtspVideoUrl":"rtsp://8.15.251.101:1935/rtplive/R2_001","title":"I-24 @ Georgia state line","id":"20"}},{"type":"Feature","geometry":{"type":"Point","coordinates":[-85.38914806,35.01196037]},"properties":{"httpVideoUrl":"http://8.15.251.101:1935/rtplive/R2_004/playlist.m3u8","thumbnailUrl":"http://www.tdot.state.tn.us/cctv/cctvchatt/live/cam16104.jpg","rtmpVideoUrl":"rtmp://8.15.251.101:1935/rtplive/R2_004","rtspVideoUrl":"rtsp://8.15.251.101:1935/rtplive/R2_004","title":"I-24 @ Cummings Rd","id":"23"}},{"type":"Feature","geometry":{"type":"Point","coordinates":[-85.36395997,35.02749547]},"properties":{"httpVideoUrl":"http://8.15.251.101:1935/rtplive/R2_007/playlist.m3u8","thumbnailUrl":"http://www.tdot.state.tn.us/cctv/cctvchatt/live/cam16107.jpg","rtmpVideoUrl":"rtmp://8.15.251.101:1935/rtplive/R2_007","rtspVideoUrl":"rtsp://8.15.251.101:1935/rtplive/R2_007","title":"I-24 @ Browns Ferry","id":"26"}},{"type":"Feature","geometry":{"type":"Point","coordinates":[-85.34674311,35.02755281]},"properties":{"httpVideoUrl":"http://8.15.251.101:1935/rtplive/R2_009/playlist.m3u8","thumbnailUrl":"http://www.tdot.state.tn.us/cctv/cctvchatt/live/cam16109.jpg","rtmpVideoUrl":"rtmp://8.15.251.101:1935/rtplive/R2_009","rtspVideoUrl":"rtsp://8.15.251.101:1935/rtplive/R2_009","title":"I-24 West of Lookout Creek","id":"28"}},{"type":"Feature","geometry":{"type":"Point","coordinates":[-85.32471636,35.02389962]},"properties":{"httpVideoUrl":"http://8.15.251.102:1935/rtplive/R2_011/playlist.m3u8","thumbnailUrl":"http://www.tdot.state.tn.us/cctv/cctvchatt/live/cam16111.jpg","rtmpVideoUrl":"rtmp://8.15.251.102:1935/rtplive/R2_011","rtspVideoUrl":"rtsp://8.15.251.102:1935/rtplive/R2_011","title":"I-24 East of Moccasin Bend","id":"386"}},{"type":"Feature","geometry":{"type":"Point","coordinates":[-85.30309998,35.02605009]},"properties":{"httpVideoUrl":"http://8.15.251.102:1935/rtplive/R2_013/playlist.m3u8","thumbnailUrl":"http://www.tdot.state.tn.us/cctv/cctvchatt/live/cam16113.jpg","rtmpVideoUrl":"rtmp://8.15.251.102:1935/rtplive/R2_013","rtspVideoUrl":"rtsp://8.15.251.102:1935/rtplive/R2_013","title":"I-24 East of Market Street","id":"31"}},{"type":"Feature","geometry":{"type":"Point","coordinates":[-85.29402837,35.01847516]},"properties":{"httpVideoUrl":"http://8.15.251.102:1935/rtplive/R2_014/playlist.m3u8","thumbnailUrl":"http://www.tdot.state.tn.us/cctv/cctvchatt/live/cam16114.jpg","rtmpVideoUrl":"rtmp://8.15.251.102:1935/rtplive/R2_014","rtspVideoUrl":"rtsp://8.15.251.102:1935/rtplive/R2_014","title":"I-24 @ Rossville Boulevard","id":"345"}},{"type":"Feature","geometry":{"type":"Point","coordinates":[-85.26286663,35.02143331]},"properties":{"httpVideoUrl":"http://8.15.251.102:1935/rtplive/R2_017/playlist.m3u8","thumbnailUrl":"http://www.tdot.state.tn.us/cctv/cctvchatt/live/cam16117.jpg","rtmpVideoUrl":"rtmp://8.15.251.102:1935/rtplive/R2_017","rtspVideoUrl":"rtsp://8.15.251.102:1935/rtplive/R2_017","title":"I-24 West of Seminole Drive","id":"34"}},{"type":"Feature","geometry":{"type":"Point","coordinates":[-83.530378,36.008149]},"properties":{"httpVideoUrl":"http://8.15.251.103:1935/rtplive/R1_214/playlist.m3u8","thumbnailUrl":"http://www.tdot.state.tn.us/cctv/cctvknox/live/cam16214.jpg","rtmpVideoUrl":"rtmp://8.15.251.103:1935/rtplive/R1_214","rtspVideoUrl":"rtsp://8.15.251.103:1935/rtplive/R1_214","title":"I-40 @ 412.2 Mile Marker","id":"430"}},{"type":"Feature","geometry":{"type":"Point","coordinates":[-83.375218,36.059622]},"properties":{"httpVideoUrl":"http://8.15.251.103:1935/rtplive/R1_216/playlist.m3u8","thumbnailUrl":"http://www.tdot.state.tn.us/cctv/cctvknox/live/cam16216.jpg","rtmpVideoUrl":"rtmp://8.15.251.103:1935/rtplive/R1_216","rtspVideoUrl":"rtsp://8.15.251.103:1935/rtplive/R1_216","title":"I-40 @ 422.3 Mile Marker","id":"432"}},{"type":"Feature","geometry":{"type":"Point","coordinates":[-82.576704,36.42264]},"properties":{"httpVideoUrl":"http://8.15.251.103:1935/rtplive/R1_218/playlist.m3u8","thumbnailUrl":"http://www.tdot.state.tn.us/cctv/cctvknox/live/cam16218.jpg","rtmpVideoUrl":"rtmp://8.15.251.103:1935/rtplive/R1_218","rtspVideoUrl":"rtsp://8.15.251.103:1935/rtplive/R1_218","title":"I-81 @ 53.0 Mile Marker","id":"434"}},{"type":"Feature","geometry":{"type":"Point","coordinates":[-82.555387,36.441677]},"properties":{"httpVideoUrl":"http://8.15.251.103:1935/rtplive/R1_219/playlist.m3u8","thumbnailUrl":"http://www.tdot.state.tn.us/cctv/cctvknox/live/cam16219.jpg","rtmpVideoUrl":"rtmp://8.15.251.103:1935/rtplive/R1_219","rtspVideoUrl":"rtsp://8.15.251.103:1935/rtplive/R1_219","title":"I-81 @ 54.8 Mile Marker","id":"435"}},{"type":"Feature","geometry":{"type":"Point","coordinates":[-82.489447,36.475705]},"properties":{"httpVideoUrl":"http://8.15.251.103:1935/rtplive/R1_221/playlist.m3u8","thumbnailUrl":"http://www.tdot.state.tn.us/cctv/cctvknox/live/cam16221.jpg","rtmpVideoUrl":"rtmp://8.15.251.103:1935/rtplive/R1_221","rtspVideoUrl":"rtsp://8.15.251.103:1935/rtplive/R1_221","title":"I-81 @ 59.3 Mile Marker","id":"437"}},{"type":"Feature","geometry":{"type":"Point","coordinates":[-82.459905,36.495048]},"properties":{"httpVideoUrl":"http://8.15.251.100:1935/rtplive/R1_222/playlist.m3u8","thumbnailUrl":"http://www.tdot.state.tn.us/cctv/cctvknox/live/cam16222.jpg","rtmpVideoUrl":"rtmp://8.15.251.100:1935/rtplive/R1_222","rtspVideoUrl":"rtsp://8.15.251.100:1935/rtplive/R1_222","title":"I-81 @ 61.4 Mile Marker","id":"438"}},{"type":"Feature","geometry":{"type":"Point","coordinates":[-84.99316667,35.13773333]},"properties":{"httpVideoUrl":"http://8.15.251.103:1935/rtplive/R2_072/playlist.m3u8","thumbnailUrl":"http://www.tdot.state.tn.us/cctv/cctvchatt/live/cam16172.jpg","rtmpVideoUrl":"rtmp://8.15.251.103:1935/rtplive/R2_072","rtspVideoUrl":"rtsp://8.15.251.103:1935/rtplive/R2_072","title":"I-75 North of White Oak Mtn.","id":"439"}},{"type":"Feature","geometry":{"type":"Point","coordinates":[-84.97468333,35.14435]},